[{"lat":"43.4573101","lng":"-76.510746","id":7152411,"name":"HOME ON WATER ST.","phone":"7097388228","address":"     156 WATER STREET","state":"NF","city":"ST-JOHN'S","postal":"A1C 1A9","priority":1},{"lat":"40.718262","lng":"-73.99621","id":7152412,"name":"ACCENTS STYLE & HOME DECOR","phone":"7096510651","address":"     89 ELIZABETH DRIVE","state":"NL","city":"GANDER","postal":"A1V 1J9","priority":1},{"lat":"48.9276561","lng":"-55.6602247","id":7152413,"name":"L.J. ALTEEN LTD JEWELLERS","phone":"7094895545","address":"     2 HIGH STREET","state":"NL","city":"GRAND-FALLS-WINDSOR","postal":"A2A 2J7","priority":1},{"lat":"40.746739","lng":"-73.8909986","id":7152414,"name":"ALTEEN BROTHERS LTD","phone":"7096399286","address":"     74 BROADWAY","state":"NL","city":"CORNER BROOK","postal":"A2H 6J3","priority":1},{"lat":"52.9425122","lng":"-66.9126777","id":7152415,"name":"JENICA'S","phone":"7099445422","address":"     208 HUMBER AVENUE","state":"NF","city":"LABRADOR CITY","postal":"A2V 1K9","priority":1},{"lat":"52.9430128","lng":"-66.9092546","id":7152416,"name":"SOLEIL ISABEL ","phone":"7092801725","address":"     201 HUMBER AVE","state":"NF","city":"LABRADOR CITY","postal":"A2V 2Y3","priority":1},{"lat":"48.1618924","lng":"-53.9791668","id":7152417,"name":"FINE THINGS","phone":"7094667936","address":"     88E MANITOBA DRIVE","state":"NL","city":"CLARENVILLE","postal":"A5A 1K7","priority":1},{"lat":"40.6947303","lng":"-73.9947694","id":7152418,"name":"MOSAIC","phone":"9026348453","address":"     118 MONTAGNE ST","state":"NS","city":"LUNENBURG","postal":"B0J 2C0","priority":1},{"lat":"44.9783354","lng":"-64.9214951","id":7152419,"name":"CANEX RETAIL STORE","phone":"9022423602","address":"     14 WING GREENWOOD ","state":"NS","city":"GREENWOOD","postal":"B0P 1N0","priority":1},{"lat":"29.8854592","lng":"-81.3107271","id":7152420,"name":"H.E. FANCY JEWELLERY LTD","phone":"9025325185","address":"     318 ST.GEORGE ST.","state":"NS","city":"ANNAPOLIS ROYAL","postal":"B0S 1A0","priority":1},{"lat":"46.1449102","lng":"-60.1622957","id":7152421,"name":"EMERALD ISLE SALES LTD","phone":"9025676877","address":"     337 WELTON ST","state":"NS","city":"SYDNEY","postal":"B1P 5S6","priority":1},{"lat":"45.3635468","lng":"-63.2759154","id":7152422,"name":"ABOVE & BEYOND HOME DECOR","phone":"9028951445","address":"     49 INGLIS PLACE","state":"NS","city":"TRURO","postal":"B2N 4B4","priority":1},{"lat":"45.363306","lng":"-63.276257","id":7152423,"name":"INGLIS JEWELLERS ","phone":"9028434223","address":"     66 INGLIS PLACE","state":"NS","city":"TRURO","postal":"B2N 4B4","priority":1},{"lat":"44.6416828","lng":"-63.5790373","id":7152424,"name":"THORNBLOOM","phone":"9024258005","address":"     1459 SOUTH PARK STREET","state":"NS","city":"HALIFAX","postal":"B3J 2L1","priority":1},{"lat":"44.6584832","lng":"-63.6103688","id":7152425,"name":"CANEX RETAIL STORE ","phone":"9024655414","address":"     6303 HAWK TERRACE","state":"NS","city":"HALIFAX","postal":"B3K 5M5","priority":1},{"lat":"44.7320648","lng":"-63.6551465","id":7152426,"name":"HAMMOCK BY THORNBLOOM","phone":"9024258005","address":"     1595 BEDFORD HIGHWAY","address2":"     SUNNYSIDE MALL ","state":"NS","city":"BEDFORD","postal":"B4A 3Y4","priority":1},{"lat":"41.7019876","lng":"-73.9212311","id":7152427,"name":"HERBIN JEWELLERS","phone":"8005802881","address":"     453 MAIN STREET","state":"NS","city":"WOLFVILLE","postal":"B4P 1E3","priority":1},{"lat":"44.3804613","lng":"-64.5171622","id":7152428,"name":"KITCHEN WITCH","phone":"9025439928","address":"     28 DAVISON DRIVE","state":"NS","city":"BRIDGEWATER","postal":"B4V 3T2","priority":1},{"lat":"41.373209","lng":"-73.08084","id":7152429,"name":"TOOIES COUNTRY STORE","phone":"9027426968","address":"     427 MAIN STREET","state":"NS","city":"YARMOUTH","postal":"B5A 1G6","priority":1},{"lat":"46.1725595","lng":"-62.6503825","id":7152430,"name":"A TOUCH OF GOLD","phone":"9028383188","address":"     DOWN EAST MALL","state":"PE","city":"MONTAGUE","postal":"C0A 1R0","priority":1},{"lat":"32.7774897","lng":"-79.9376112","id":7152431,"name":"NORTONS JEWELLERS ","phone":"9028943922","address":"     160 QUEEN STREET","state":"PE","city":"CHARLOTTETOWN","postal":"C1A 4B5","priority":1},{"lat":"46.4028438","lng":"-63.7431205","id":7152432,"name":"PRESTIGE","phone":"9024365236","address":"     595 READ DR","state":"PE","city":"SUMMERSIDE","postal":"C1N 5C2","priority":1},{"lat":"30.0849216","lng":"-97.8401536","id":7152433,"name":"GIFTS GALORE","phone":"5068579179","address":"     569 MAIN ST","state":"NB","city":"MONCTON","postal":"E1C 1C6","priority":1},{"lat":"40.5107888","lng":"-74.2483777","id":7152434,"name":"CATHERINE & COMPANY","phone":"5065463371","address":"     173 MAIN STREET","state":"NB","city":"BATHURST","postal":"E2A 1A6","priority":1},{"lat":"45.8399358","lng":"-66.4550542","id":7152435,"name":"CANEX SUPERMART STORE ","phone":"5063572050","address":"     5 CDSB GAGETOWN A-42","state":"NB","city":"OROMOCTO","postal":"E2V 4J5","priority":1},{"lat":"41.3069785","lng":"-72.933086","id":7152436,"name":"ROOM2REMEMBER","phone":"5064439016","address":"     100 YORK  STREET","state":"NB","city":"FREDERICTON","postal":"E3B 3N5","priority":1},{"lat":"35.1127447","lng":"-77.0363191","id":7152437,"name":"ST.STEPHEN GUARDIAN","phone":"5064664447","address":"     101 KING ST","state":"NB","city":"ST-STEPHENS","postal":"E3L 2C6","priority":1},{"lat":"47.3714028","lng":"-68.3268355","id":7152438,"name":"BOUTIQUE VICTORIA","phone":"5067397253","address":"     268 RUE VICTORIA","state":"NB","city":"EDMUNDSTON","postal":"E3V 2H9","priority":1},{"lat":"43.684402","lng":"-114.3773389","id":7152439,"name":"TONER HOME HARDWARE","phone":"5064733344","address":"     445 BROADWAY BLVD","state":"NB","city":"GRAND FALLS","postal":"E3Z 2K5","priority":1},{"lat":"40.82321","lng":"-75.6815162","id":7152440,"name":"VANITY FLAIR","phone":"5063283265","address":"     538 LOWER MAIN ST.","state":"NB","city":"WOODSTOCK","postal":"E7M 2C3","priority":1},{"lat":"45.7872887","lng":"-73.3970717","id":7152441,"name":"BOUTIQUE OR-DECO","phone":"5062842503","address":"     64 RUE NOTRE-DAME","state":"NB","city":"KEDGWICK","postal":"E8B 1H4","priority":1},{"lat":"47.744738","lng":"-64.7120277","id":7152442,"name":"KIT PLUS","phone":"5063364156","address":"215 BOUL. J.D. GAUTHIER  ","state":"NB","city":"SHIPPAGAN","postal":"E8S 1N1  ","priority":1},{"lat":"46.8871942","lng":"-71.5044458","id":7152443,"name":"CANEX RETAIL STORE ","phone":"4188443678","address":"     172 DUBE STREET","state":"QC","city":"COURCELETTE","postal":"G0A 1R1","priority":1},{"lat":"46.8036159","lng":"-71.2212783","id":7152444,"name":"BIJOUTERIE BRIGITTE","phone":"4183852159","address":"     207 GRANDE ALLEE","state":"QC","city":"GRANDE RIVIERE","postal":"G0C 1V0","priority":1},{"lat":"48.1910856","lng":"-65.967836","id":7152445,"name":"MEUBLES CONRAD BOUDREAU","phone":"4187593865","address":"     687 BOUL PERRON","state":"QC","city":"MARIA","postal":"G0C 1Y0","priority":1},{"lat":"50.2447608","lng":"-63.5928731","id":7152446,"name":"MULTI MEUBLES DU HAVRE","phone":"4185382560","address":"     1280 RUE DE LA DIGUE","state":"QC","city":"HAVRE-SAINT-PIERRE","postal":"G0G 1P0","priority":1},{"lat":"47.6749696","lng":"-68.8799661","id":7152447,"name":"J.A. ST-PIERRE & FILS ","phone":"4188542100","address":"     70 BOUL. PHIL-LATULIPPE","state":"QC","city":"TEMISCOUATA-SUR-LE-LAC","postal":"G0L 1E0","priority":1},{"lat":"47.5271986","lng":"-69.8054665","id":7152448,"name":"TABAGIE ACCOMODATION LUNIK","phone":"4184922096","address":"     510 AVENUE MARTIN","state":"QC","city":"SAINT-PASCAL","postal":"G0L 3Y0","priority":1},{"lat":"46.4039917","lng":"-70.5250192","id":7152449,"name":"BIJOUTERIE ETCHEMIN","phone":"4186253264","address":"     1568-F ROUTE 277","state":"QC","city":"LAC-ETCHEMIN","postal":"G0R 1S0","priority":1},{"lat":"46.4059107","lng":"-70.3531918","id":7152450,"name":"BOUTIQUE CADEAU UNI-FLEUR","phone":"4183833000","address":"     135-2 PRINCIPALE","state":"QC","city":"STE-JUSTINE","postal":"G0R 1Y0","priority":1},{"lat":"47.3628571","lng":"-70.0348926","id":7152451,"name":"HOME HARDWARE ","phone":"4188562828","address":"     1011 1ER RUE","address2":"     CARREFOUR LA POCATIERE","state":"QC","city":"LA POCATIERE","postal":"G0R 1Z0","priority":1},{"lat":"46.5654043","lng":"-71.4286441","id":7152452,"name":"AVANTIS COOPERATIVE","phone":"4188883938","address":"     1107 RUE DAIGLE","state":"QC","city":"SAINT-AGAPIT","postal":"G0S 1Z0","priority":1},{"lat":"47.6834258","lng":"-70.264962","id":7152453,"name":"BRUNET","phone":"4185872291","address":"     25 ROUTE 138","state":"QC","city":"FORESTVILLE","postal":"G0T 1E0","priority":1},{"lat":"46.7271149","lng":"-72.5680012","id":7152454,"name":"GESTION CHAR.& TRUDEL ","phone":"4183657543","address":"     260 DU MOULIN","state":"QC","city":"ST TITE","postal":"G0X 3H0","priority":1},{"lat":"46.8606254","lng":"-71.217647","id":7152455,"name":"LIBRAIRIE RENAUD-BRAY ","phone":"5819818044","address":"     3333 RUE DU CARREFOUR","state":"QC","city":"QUEBEC","postal":"G1C 5R9","priority":1},{"lat":"46.8801147","lng":"-71.1846482","id":7152456,"name":"ROYAUME LUMINAIRE","phone":"4186605212","address":"     415 BOUL. ARMAND-PARIS","state":"QC","city":"BEAUPORT","postal":"G1C 7R3","priority":1},{"lat":"46.866096","lng":"-71.2701482","id":7152457,"name":"JACQUES LE PAPETIER","phone":"4186284335","address":"     8500 HENRI-BOURASSA","state":"QC","city":"QUEBEC","postal":"G1G 5X1","priority":1},{"lat":"46.8156","lng":"-71.220491","id":7152458,"name":"LES ESCOMPTES LECOMPTE ","phone":"4185292743","address":"     714 RUE ST-JOSEPH EST","state":"QC","city":"QUEBEC","postal":"G1K 3C3","priority":1},{"lat":"46.8252982","lng":"-71.2742128","id":7152459,"name":"BIJOUTERIE P.A. LANGLOIS","phone":"4186833145","address":"    909 BOUL PIERRE BERTRAND S","state":"QC","city":"VANIER","postal":"G1M 3R8","priority":1},{"lat":"46.7950948","lng":"-71.2508826","id":7152460,"name":"GROUPE JACOBUS ","phone":"4185235151","address":"     225-830 AVE ERNEST-GAGNON","state":"QC","city":"QUEBEC","postal":"G1S 3R3","priority":1},{"lat":"46.7817516","lng":"-71.2522443","id":7152461,"name":"PARFUMERIE PARIS","phone":"4186818505","address":"     1280 RUE MAGUIRE","state":"QC","city":"SILLERY","postal":"G1T 1Z3","priority":1},{"lat":"46.7865944","lng":"-71.2802915","id":7152462,"name":"NATERO","phone":"4186535400","address":"     2336 CHEMIN STE-FOY","state":"QC","city":"QUEBEC","postal":"G1V 1S5","priority":1},{"lat":"46.7721296","lng":"-71.2798345","id":7152463,"name":"ARCHAMBAULT PLACE LAURIER","phone":"4186532387","address":"     2450 BOUL. LAURIER","state":"QC","city":"QUEBEC","postal":"G1V 2L1","priority":1},{"lat":"46.7706734","lng":"-71.2849442","id":7152464,"name":"LIBRAIRIE RENAUD-BRAY ","phone":"4186591021","address":"     2700 BOUL LAURIER","address2":"     PLACE LAURIER ","state":"QC","city":"SAINTE-FOY","postal":"G1V 2L8","priority":1},{"lat":"46.7614545","lng":"-71.334238","id":7152465,"name":"GESTION B.B.F.D. ","phone":"4186581337","address":"     3730 DU CAMPANILE","state":"QC","city":"QUEBEC","postal":"G1X 4G6","priority":1},{"lat":"46.7664178","lng":"-71.3696395","id":7152466,"name":"LAURENCE ALEXANDRE","phone":"4188779914","address":"     1221 CHARLES ALBANEL","state":"QC","city":"SAINTE-FOY","postal":"G1X 4Y5","priority":1},{"lat":"46.7682565","lng":"-71.371434","id":7152467,"name":"FLORALIES JOUVENCE","phone":"4188720869","address":"     2020 JULES-VERNE","state":"QC","city":"SAINTE-FOY","postal":"G2G 2R2","priority":1},{"lat":"46.8307264","lng":"-71.2993431","id":7152468,"name":"LIBRAIRIE RENAUD-BRAY ","phone":"4186275480","address":"     5401 BOUL DES GALERIES","state":"QC","city":"QUEBEC","postal":"G2K 1N4","priority":1},{"lat":"46.8307264","lng":"-71.2993431","id":7152469,"name":"KOZY ","phone":"4183805699","address":"     5401 BLV DES GALERIES","address2":"     GALERIES DE LA CAPITALE","state":"QC","city":"QUEBEC","postal":"G2K 1N4","priority":1},{"lat":"46.859414","lng":"-71.4076653","id":7152470,"name":"DISTINCTION MC DCOR","phone":"4188421331","address":"     1940 RUE DE L'INTERLUDE","state":"QC","city":"QUEBEC","postal":"G3K 0R6","priority":1},{"lat":"46.6811115","lng":"-71.7302076","id":7152471,"name":"LINGERIE NATHALIE","phone":"4182852580","address":"     325 DE L'EGLISE","address2":"     PLACE DONNACONA","state":"QC","city":"DONNACONA","postal":"G3M 2A2","priority":1},{"lat":"48.0184718","lng":"-69.3327876","id":7152472,"name":"LES TRESORS DE NANCY","phone":"4184355124","address":"     66 ST-JEAN BAPTISTE","state":"QC","city":"BAIE ST-PAUL","postal":"G3Z 1M4","priority":1},{"lat":"50.2188182","lng":"-66.3818236","id":7152473,"name":"AU DOMAINE FLEURI","phone":"4189623373","address":"     690 BOULEVARD LAURE","state":"QC","city":"SEPT-ILES","postal":"G4R 4N8","priority":1},{"lat":"50.2045508","lng":"-66.3841777","id":7152474,"name":"BOUT DE NOEL LE POINSETTIA","phone":"4189682400","address":"     391 BROCHU ","state":"QC","city":"SEPT-ILES","postal":"G4R 4S7","priority":1},{"lat":"49.1258521","lng":"-66.4878559","id":7152475,"name":"GESTION GUYLAINE LEPAGE ","phone":"4187637848","address":"     33 BOUL STE-ANNE OUEST","state":"QC","city":"STE ANNE DES MONTS","postal":"G4V 1P8","priority":1},{"lat":"48.8466783","lng":"-67.5258265","id":7152476,"name":"FLEURISTE HARRISSON 2006","phone":"4185622399","address":"     124 D'AMOURS","state":"QC","city":"MATANE","postal":"G4W 2X4","priority":1},{"lat":"48.8528876","lng":"-67.535657","id":7152477,"name":"LES BIJOUX DOUCET 1993 ","phone":"4185625477","address":"     750 DU PHARE OUEST","state":"QC","city":"MATANE","postal":"G4W 3W8","priority":1},{"lat":"48.8405275","lng":"-64.4874763","id":7152478,"name":"PAPETERIE CARTIER ","phone":"4183685433","address":"     159 BOUL. DE GASPE","state":"QC","city":"GASPE","postal":"G4X 1A4","priority":1},{"lat":"45.4306547","lng":"-73.591858","id":7152479,"name":"POT POURRI BAIE-COMEAU","phone":"4182962911","address":"     300 BOUL. LASALLE","state":"QC","city":"BAIE-COMEAU","postal":"G4Z 2K2","priority":1},{"lat":"47.6442372","lng":"-70.1504775","id":7152480,"name":"FLEURISTE O TANDEM","phone":"4186657777","address":"     375 BLV DE COMPORTE","state":"QC","city":"LA MALBAIE","postal":"G5A 1K9","priority":1},{"lat":"47.6575173","lng":"-70.1539945","id":7152481,"name":"TOU & CIE","phone":"4182027177","address":"     177 RUE ST-ETIENNE","state":"QC","city":"LA MALBAIE","postal":"G5A 1T6","priority":1},{"lat":"50.020689","lng":"-66.878922","id":7152482,"name":"BOUTIQUE MARIE-FLEUR ","phone":"4187666505","address":"     4-A BOUL. DES ILES","state":"QC","city":"PORT-CARTIER","postal":"G5B 1V6","priority":1},{"lat":"50.0205483","lng":"-66.8822654","id":7152483,"name":"BRUNET MOHAMED MADI","phone":"4187664424","address":"     8 BOUL DES ILES","state":"QC","city":"PORT CARTIER","postal":"G5B 2J4","priority":1},{"lat":"49.196946","lng":"-68.2621688","id":7152484,"name":"FLEURISTE MANON TREMBLAY","phone":"4185892430","address":"     993 BOUL. LAFLECHE","state":"QC","city":"BAIE COMEAU","postal":"G5C 1C8","priority":1},{"lat":"48.4560093","lng":"-67.4196508","id":7152485,"name":"MAURICE BELANGER PAYSAGIST","phone":"4186294673","address":"     175 BOUL SAINT-BENOIT EST","state":"QC","city":"AMQUI","postal":"G5J 2C2","priority":1},{"lat":"48.4652055","lng":"-67.431194","id":7152486,"name":"LVESQUE ET MCNICOLL","phone":"4186291414","address":"     20 RUE DU PONT","state":"QC","city":"AMQUI","postal":"G5J 2P5","priority":1},{"lat":"48.4520881","lng":"-68.5260319","id":7152487,"name":"MAISON FLEURIE RIMOUSKI ","phone":"4187215844","address":"     48 RUE ST-GERMAIN EST","state":"QC","city":"RIMOUSKI","postal":"G5L 1A4","priority":1},{"lat":"48.4497279","lng":"-68.5329207","id":7152488,"name":"BOUTIQUE POT-POURRI","phone":"4187224544","address":"     2-110 RUE ST-GERMAIN O","state":"QC","city":"RIMOUSKI","postal":"G5L 4B5","priority":1},{"lat":"47.8242149","lng":"-69.5483353","id":7152489,"name":"FOLIDECO","phone":"4186059800","address":"     298 BL. ARMAND-THERIAULT","state":"QC","city":"RIVIERE-DU-LOUP","postal":"G5R 4C2","priority":1},{"lat":"45.4443248","lng":"-73.0648417","id":7152490,"name":"ESTHETIQUE FLEUR DE PEAU","phone":"4188532457","address":"     471 PRINCIPALE","state":"QC","city":"SAINTE-ROSE-DU-DEGELIS","postal":"G5T 1L6","priority":1},{"lat":"45.9901428","lng":"-74.1172867","id":7152491,"name":"MAGASIN LEVESQUE","phone":"4182482682","address":"     66 DE LA GARE","state":"QC","city":"MONTMAGNY","postal":"G5V 2S9","priority":1},{"lat":"48.6892743","lng":"2.3713658","id":7152492,"name":"DIFFUSION ARTEQ ","phone":"4182483332","address":"     20 AVENUE DE LA COUR","state":"QC","city":"MONTMAGNY","postal":"G5V 2V9","priority":1},{"lat":"46.1229975","lng":"-70.6796414","id":7152493,"name":"LA MAISON DES CRISTAUX","phone":"4182270150","address":"     11185 1ERE AVENUE","state":"QC","city":"ST-GEORGES","postal":"G5Y 2B9","priority":1},{"lat":"46.0983868","lng":"-70.6516615","id":7152494,"name":"SAVON. HIST. DE BULLES ","phone":"4182216723","address":"     12010 1ERE AVENUE","state":"QC","city":"ST-GEORGES","postal":"G5Y 2E1","priority":1},{"lat":"44.0227738","lng":"-116.995218","id":7152495,"name":"LES FOURNITURES DE BEAUCE","phone":"4182284755","address":"     2190, 6IEME AVENUE","state":"QC","city":"ST-GEORGES","postal":"G5Y3X2","priority":1},{"lat":"45.5369494","lng":"-73.58377","id":7152496,"name":"COULEUR BONHEUR","phone":"8195832511","address":"     5300 RUE PAPINEAU","state":"QC","city":"LAC MEGANTIC","postal":"G6B 0C9","priority":1},{"lat":"46.4520665","lng":"-71.0336603","id":7152497,"name":"LOUCAS COLLECTION","phone":"4183873611","address":"     1051 BOUL VACHON NORD","state":"QC","city":"SAINTE-MARIE","postal":"G6E 1M4","priority":1},{"lat":"46.427742","lng":"-71.0048679","id":7152498,"name":"LES JARDINS DE LA PAS. ","phone":"4183862380","address":"     1052 BOUL. VACHON SUD","state":"QC","city":"STE-MARIE","postal":"G6E 2S5","priority":1},{"lat":"46.1127106","lng":"-71.3014969","id":7152499,"name":"GESTION PRIMUS PHARMA ","phone":"4183384558","address":"     805 BOUL FRONTENAC EST","state":"QC","city":"THETFORD MINES","postal":"G6G 6L5","priority":1},{"lat":"45.5072798","lng":"-73.5550023","id":7152500,"name":"LA BONBONNIERE","phone":"8197525600","address":"     41 NOTRE-DAME EST","state":"QC","city":"VICTORIAVILLE","postal":"G6P 3Z4","priority":1},{"lat":"46.0565037","lng":"-71.9562081","id":7152501,"name":"LECOMPTE MAGASIN ","phone":"8197582626","address":"     119 NOTRE-DAME EST","state":"QC","city":"VICTORIAVILLE","postal":"G6P 3Z8","priority":1},{"lat":"46.059653","lng":"-71.9267684","id":7152502,"name":"LIBRAIRIE RENAUD-BRAY ","phone":"8193574878","address":"     1111 BOUL JUTRAS EST","address2":"     GR. PLACE DES BOIS FRANCS","state":"QC","city":"VICTORIAVILLE","postal":"G6S 1C1","priority":1},{"lat":"46.059653","lng":"-71.9267684","id":7152503,"name":"CPC VICTORIAVILLE","phone":"8192601309","address":"     1111 BL JUTRAS EST #101","state":"QC","city":"VICTORIAVILLE","postal":"G6S 1C1","priority":1},{"lat":"46.0801711","lng":"-71.9315711","id":7152504,"name":"SIGNE GARNEAU FLEURISTE","phone":"8197583887","address":"     29 ROUTE 116","state":"QC","city":"VICTORIAVILLE","postal":"G6T 0S5","priority":1},{"lat":"46.7964057","lng":"-71.1717412","id":7152505,"name":"LIBRAIRIE RENAUD-BRAY ","phone":"4188375538","address":"     1200 ALPHONSE-DESJARDINS","state":"QC","city":"LEVIS","postal":"G6V 6Y8","priority":1},{"lat":"46.7309271","lng":"-71.2591605","id":7152506,"name":"ARCHAMBAULT ST-ROMUALD","phone":"4189031095","address":"     1238 RUE DE LA CONCORDE","state":"QC","city":"ST-ROMUALD","postal":"G6W 0M7","priority":1},{"lat":"46.7452946","lng":"-71.2277035","id":7152507,"name":"LEOPOLD BOUCHARD","phone":"4188399538","address":"     385 AVENUE TANIATA","state":"QC","city":"LEVIS","postal":"G6W 5M6","priority":1},{"lat":"46.7869813","lng":"-71.1874706","id":7152508,"name":"FLORALIES RIVE-SUD","phone":"4188333323","address":"     4760 BL GUILLAUME COUTURE","state":"QC","city":"LEVIS","postal":"G6W 5N6","priority":1},{"lat":"46.7134633","lng":"-71.272072","id":7152509,"name":"MIRAGE BEAUTE","phone":"4188320111","address":"     3340 AV. DES EGLISES","state":"QC","city":"LEVIS","postal":"G6X 3K9","priority":1},{"lat":"48.3365052","lng":"-70.8963825","id":7152510,"name":"BIJOUTERIE KARINE ","phone":"4185447033","address":"     2100 RUE BAGOT","address2":"     GALERIE DE LA BAIE","state":"QC","city":"LA BAIE","postal":"G7B 3Z3","priority":1},{"lat":"48.4477252","lng":"-71.0852213","id":7152511,"name":"JEAN COUTU ","phone":"4185435599","address":"     871 BOUL. STE-GENEVIEVE","state":"QC","city":"CHICOUTIMI","postal":"G7G 2E9","priority":1},{"lat":"46.9128036","lng":"-71.3396661","id":7152512,"name":"ROSE BONBON","phone":"4186930820","address":"     1408 BOUL. TALBOT","state":"QC","city":"SAGUENAY","postal":"G7H 4B7","priority":1},{"lat":"48.4100512","lng":"-71.0548265","id":7152513,"name":"ARCHAMBAULT ","phone":"4186981586","address":"     1120 BOUL. TALBOT","state":"QC","city":"CHICOUTIMI","postal":"G7H 7R2","priority":1},{"lat":"48.3937543","lng":"-71.0678861","id":7152514,"name":"EUGENE ALLARD CUIS.& TEND.","phone":"4185494747","address":"     2448 DES ROITELETS","state":"QC","city":"CHICOUTIMI","postal":"G7H 7X3","priority":1},{"lat":"48.5566612","lng":"-71.3242054","id":7152515,"name":"GESTION KOWDI ","phone":"4186722626","address":"     470 RUE SIMARD","state":"QC","city":"SAINT-AMBROISE","postal":"G7P 2S5","priority":1},{"lat":"48.403157","lng":"-71.1697838","id":7152516,"name":"IMPORTATIONS JASS","phone":"4185420310","address":"     2655 BOUL DU ROYAUME","address2":"     FAUBOURG SAGAMIE","state":"QC","city":"JONQUIERE","postal":"G7S 4S9","priority":1},{"lat":"48.414848","lng":"-71.2538291","id":7152517,"name":"JEAN COUTU ","phone":"4185479311","address":"     2306 ST-DOMINIQUE","state":"QC","city":"JONQUIERE","postal":"G7X 6L8","priority":1},{"lat":"46.563873","lng":"-71.4299533","id":7152518,"name":"LA BELLE BOUTIQUE","phone":"4186686740","address":"     1055 AVENUE DUPONT","state":"QC","city":"ALMA","postal":"G8B 2V7","priority":1},{"lat":"48.525155","lng":"-71.6533023","id":7152519,"name":"EUGENE ALLARD CUIS.& TEND.","phone":"4182128812","address":"     1710 AVENUE DU PONT S","state":"QC","city":"ALMA","postal":"G8B 6N3","priority":1},{"lat":"45.2805622","lng":"-72.97934","id":7152520,"name":"BIJOUTERIE L. PERRON LTEE","phone":"4183492074","address":"     142 RUE ST-ANDRE","state":"QC","city":"METABETCHOUAN","postal":"G8G 1W1","priority":1},{"lat":"48.6410345","lng":"-72.3986459","id":7152521,"name":"LA MAISON DU BLEUET","phone":"4186304333","address":"     557 ROUTE 169","state":"QC","city":"SAINT-FELICIEN","postal":"G8K 3J3","priority":1},{"lat":"48.8636601","lng":"-72.2168455","id":7152522,"name":"ELLE BOUTIQUE ELLE D'CO","phone":"4182765391","address":"     270-1300 BOUL. WALLBERG","state":"QC","city":"DOLBEAU","postal":"G8L 3L8","priority":1},{"lat":"47.54883","lng":"-68.6520796","id":7152523,"name":"HUARD & COMPAGNIE","phone":"4187484042","address":"     350 3IEME RUE","state":"QC","city":"CHIBOUGAMAU","postal":"G8P 1N5","priority":1},{"lat":"46.3816388","lng":"-72.5459944","id":7152524,"name":"ACCESS DESIGN","phone":"8196932906","address":"     626 BOUL. THIBEAU","state":"QC","city":"TROIS-RIVIERES","postal":"G8T 6Z7","priority":1},{"lat":"46.3562107","lng":"-72.5891327","id":7152525,"name":"KOZY TROIS-RIVIERES ","phone":"8198414475","address":"     4225 BLV DES FORGES ","state":"QC","city":"TROIS-RIVIERES","postal":"G8Y 1W2","priority":1},{"lat":"46.3421937","lng":"-72.543923","id":7152526,"name":"LECOMPTE MAGASIN ","phone":"8196941112","address":"     385 DES FORGES","state":"QC","city":"TROIS-RIVIERES","postal":"G9A 2H4","priority":1},{"lat":"46.3252869","lng":"-72.5668594","id":7152527,"name":"UNIPRIX BORD&HOULE ","phone":"8193759686","address":"     4520 BL DES RECOLLETS ","state":"QC","city":"TROIS-RIVIERES","postal":"G9A 4N2","priority":1},{"lat":"46.3235059","lng":"-72.6008843","id":7152528,"name":"ROYAUME LUMINAIRE ","phone":"8193775817","address":"     6975 BOUL JEAN XXIII","state":"QC","city":"TROIS-RIVIERES OUEST","postal":"G9A 5C9","priority":1},{"lat":"46.3315256","lng":"-72.5678359","id":7152529,"name":"LIBRAIRIE RENAUD-BRAY ","phone":"8198402624","address":"     3275 BOUL. DES RECOLLETS","state":"QC","city":"TROIS-RIVIERES","postal":"G9A 6M1","priority":1},{"lat":"46.5403177","lng":"-72.7499749","id":7152530,"name":"CADEAUX CHEZ GUY ","phone":"8195367908","address":"     667 5E RUE DE LA POINTE","state":"QC","city":"SHAWINIGAN","postal":"G9N 1E7","priority":1},{"lat":"46.6155167","lng":"-72.6910961","id":7152531,"name":"TISSUS PEINT. BERTHIAUME","phone":"8195384521","address":"     526 AVENUE DE GRAND-MERE","state":"QC","city":"SHAWINIGAN","postal":"G9T 2H2","priority":1},{"lat":"42.3322253","lng":"-83.0389287","id":7152532,"name":"AVENTURES TROPICALES","phone":"8195237457","address":"     507 ST-ANTOINE","state":"QC","city":"LA TUQUE","postal":"G9X 2Y5","priority":1},{"lat":"45.6545714","lng":"-73.512715","id":7152533,"name":"LA ROUQUINE","phone":"5146429937","address":"     12675 SHERBROOKE EST","state":"QC","city":"MONTREAL","postal":"H1A 3W7","priority":1},{"lat":"45.6390726","lng":"-73.5801005","id":7152534,"name":"FLEURISTE CASAFLORE","phone":"5146489397","address":"     12005A ALEXIS-CARREL","state":"QC","city":"RIVIERE-DES-PRAIRIES","postal":"H1E 4B8","priority":1},{"lat":"45.6111253","lng":"-73.5911893","id":7152535,"name":"J.E. MONDOU LTE","phone":"5143225300","address":"     10400 RENAUDE-LAPOINTE","state":"QC","city":"ANJOU","postal":"H1J 2V7","priority":1},{"lat":"45.5964022","lng":"-73.5515635","id":7152536,"name":"LIBRAIRIE RENAUD-BRAY ","phone":"5143532353","address":"     7999 BOUL GAL.D'ANJOU","state":"QC","city":"ANJOU","postal":"H1M 1W6","priority":1},{"lat":"45.5976196","lng":"-73.5679951","id":7152537,"name":"ARCHAMBAULT ","phone":"5143512230","address":"     7500-50 BOUL. GAL. ANJOU","state":"QC","city":"ANJOU","postal":"H1M 3M4","priority":1},{"lat":"43.296482","lng":"5.36978","id":7152538,"name":"LIBRAIRIE RENAUD-BRAY","phone":"5143359814","address":"     5654 RUE DE MARSEILLE","state":"QC","city":"MONTREAL","postal":"H1N 1J6","priority":1},{"lat":"45.5482691","lng":"-73.5423181","id":7152539,"name":"PIKOTTINE","phone":"5145225189","address":"     3904 RUE ONTARIO EST","state":"QC","city":"MONTREAL","postal":"H1W 1S6","priority":1},{"lat":"45.5499492","lng":"-73.5909346","id":7152540,"name":"LA MANSARDE BLEUE","phone":"5147252955","address":"     2563 RUE BEAUBIEN EST","state":"QC","city":"MONTREAL","postal":"H1Y 1G4","priority":1},{"lat":"45.5476139","lng":"-73.574961","id":7152541,"name":"BOUTIQUE SANS LIMITES","phone":"5145931797","address":"     2850 RUE MASSON","state":"QC","city":"MONTREAL","postal":"H1Y 1W9","priority":1},{"lat":"45.560512","lng":"-73.6576013","id":7152543,"name":"CASA LUCA ","phone":"5143896066","address":"     1354 FLEURY EST","state":"QC","city":"MONTREAL","postal":"H2C 1R5","priority":1},{"lat":"45.5659806","lng":"-73.6549529","id":7152544,"name":"LIBRAIRIE RENAUD-BRAY ","phone":"5143849920","address":"     1691 RUE FLEURY EST","state":"QC","city":"MONTREAL","postal":"H2C 1T1","priority":1},{"lat":"45.5294699","lng":"-73.5776612","id":7152545,"name":"LA SOUPIERE","phone":"5145274626","address":"     1272 MT ROYAL EST","state":"QC","city":"MONTREAL","postal":"H2J 1Y3","priority":1},{"lat":"45.5229802","lng":"-73.5810859","id":7152546,"name":"LIBRAIRIE RENAUD-BRAY ","phone":"5148442587","address":"     4380 RUE ST-DENIS","address2":"     CHAMPIGNY SAINT-DENIS","state":"QC","city":"MONTREAL","postal":"H2J 2L1","priority":1},{"lat":"45.5147286","lng":"-73.5591724","id":7152547,"name":"ARCHAMBAULT ","phone":"5148496201","address":"     500 STE-CATHERINE EST","state":"QC","city":"MONTREAL","postal":"H2L 2C6","priority":1},{"lat":"45.5352269","lng":"-73.6004784","id":7152548,"name":"LIBRAIRIE RENAUD-BRAY ","phone":"5142880952","address":"     6255 RUE ST-HUBERT","address2":"     PLAZA ST-HUBERT","state":"QC","city":"MONTREAL","postal":"H2S 2L9","priority":1},{"lat":"45.5299955","lng":"-73.6077594","id":7152549,"name":"LA GUILDE CULINAIRE ","phone":"5147506050","address":"     6381 BOUL. ST-LAURENT","state":"QC","city":"MONTREAL","postal":"H2S 3C3","priority":1},{"lat":"45.533473","lng":"-73.6152989","id":7152550,"name":"CIGARE ET COMPAGNIE","phone":"5142770014","address":"     6981 BOUL ST-LAURENT","state":"QC","city":"MONTREAL","postal":"H2S 3E1","priority":1},{"lat":"45.5191418","lng":"-73.6098149","id":7152551,"name":"SEVERINE","phone":"5142731237","address":"     1305 AVENUE BERNARD O","state":"QC","city":"OUTREMONT","postal":"H2V 1W1","priority":1},{"lat":"45.5174425","lng":"-73.5979394","id":7152552,"name":"BOUTIQUE 1101","phone":"5142797999","address":"     1101 LAURIER AVENUE OUEST","state":"QC","city":"OUTREMONT","postal":"H2V 2L3","priority":1},{"lat":"45.5171466","lng":"-73.5977334","id":7152553,"name":"LA BELLE BOUTIQUE","phone":"5149480777","address":"     1120 LAURIER OUEST","state":"QC","city":"MONTREAL","postal":"H2V 2L4","priority":1},{"lat":"45.523285","lng":"-73.605376","id":7152554,"name":"QUINC. PARC ET BERNARD","phone":"5149485610","address":"     5742 AVENUE DU PARC","state":"QC","city":"MONTREAL","postal":"H2V 4H1","priority":1},{"lat":"45.5077887","lng":"-73.5672016","id":7152555,"name":"ARCHAMBAULT ","phone":"5142810367","address":"     1501 RUE JEANNE-MANCE","state":"QC","city":"MONTREAL","postal":"H2X 1Z8","priority":1},{"lat":"45.501387","lng":"-73.5698159","id":7152556,"name":"LIBRAIRIE RENAUD-BRAY ","phone":"5147885300","address":"     1 PLACE VILLE MARIE","state":"QC","city":"MONTREAL","postal":"H3B 3Y1","priority":1},{"lat":"45.5002143","lng":"-73.5588532","id":7152557,"name":"FLEURISTE ESPACE VERT MLT","phone":"5143971888","address":"     625 RUE MAURICE","state":"QC","city":"MONTREAL","postal":"H3C 1L3","priority":1},{"lat":"45.4966634","lng":"-73.576013","id":7152558,"name":"VASCO CIGARS","phone":"5142840475","address":"     1394 SAINTE-CATHERINE O","state":"QC","city":"MONTREAL","postal":"H3G 1P8","priority":1},{"lat":"45.4956537","lng":"-73.6216085","id":7152559,"name":"LIBRAIRIE RENAUD-BRAY ","phone":"5143421515","address":"     5252 CH. COTE-DES-NEIGES","state":"QC","city":"MONTREAL","postal":"H3T 1X8","priority":1},{"lat":"45.4982539","lng":"-73.6257845","id":7152560,"name":"QUINCAIL. COTE-DES-NEIGES","phone":"5143430555","address":"     5605 COTE-DES-NEIGES","state":"QC","city":"MONTREAL","postal":"H3T 1Y8","priority":1},{"lat":"45.4790033","lng":"-73.6039008","id":7152561,"name":"QUINC. HOGG HARDWARE","phone":"4383800501","address":"     4855 SHERBROOKE ST W","state":"QC","city":"WESTMOUNT","postal":"H3Z 1G9","priority":1},{"lat":"45.477559","lng":"-73.6053582","id":7152562,"name":"BEN & TOURNESOL","phone":"5144815050","address":"     4937 SHERBROOKE STREET W","state":"QC","city":"WESTMOUNT","postal":"H3Z 1H2","priority":1},{"lat":"45.486448","lng":"-73.5887298","id":7152563,"name":"BOUTIQUE MARIE DUMAS","phone":"5149329977","address":"     1234 GREENE AVENUE","state":"QC","city":"WESTMOUNT","postal":"H3Z 2A3","priority":1},{"lat":"45.5075084","lng":"-73.5644126","id":7152564,"name":"LIBRAIRIE RENAUD-BRAY ","phone":"5142884844","address":"     150 STE-CATHERINE OUEST","state":"QC","city":"MONTREAL","postal":"H5B 1B5","priority":1},{"lat":"45.5986239","lng":"-73.8070723","id":7152565,"name":"A LA BOITE · FLEURS","phone":"4506220341","address":"     3266 BOUL STE-ROSE","state":"QC","city":"LAVAL","postal":"H7P 4K8","priority":1},{"lat":"45.5610841","lng":"-73.7326579","id":7152566,"name":"ARES LAVAL","phone":"4509021030","address":"     1550 BOUL. LE CORBUSIER","state":"QC","city":"LAVAL","postal":"H7S 1Y8","priority":1},{"lat":"45.5603711","lng":"-73.7299956","id":7152567,"name":"LIBRAIRIE RENAUD-BRAY ","phone":"4506822587","address":"     1600 BOUL LE CORBUSIER","address2":"     CENTRE LAVAL","state":"QC","city":"LAVAL","postal":"H7S 1Y9","priority":1},{"lat":"45.563237","lng":"-73.7281756","id":7152568,"name":"ARCHAMBAULT ","phone":"4509789900","address":"     1545 BOUL. LE CORBUSIER","state":"QC","city":"LAVAL","postal":"H7S 2K6","priority":1},{"lat":"45.570632","lng":"-73.7521171","id":7152569,"name":"LIBRAIRIE RENAUD-BRAY ","phone":"4506813032","address":"     3035 BOUL LE CARREFOUR","state":"QC","city":"LAVAL","postal":"H7T 1C8","priority":1},{"lat":"45.525567","lng":"-73.7807661","id":7152570,"name":"ARCHAMBAULT ","phone":"4507192020","address":"     520, AUTOROUTE CHOMEDEY","state":"QC","city":"LAVAL","postal":"H7X 3S9","priority":1},{"lat":"45.4477174","lng":"-73.6150661","id":7152571,"name":"LIBRAIRIE RENAUD-BRAY ","phone":"5143652587","address":"     7077 BOUL NEWMAN ","state":"QC","city":"VILLE LASALLE","postal":"H8N 1X1","priority":1},{"lat":"45.4745064","lng":"-73.8372003","id":7152573,"name":"AQUA SPA LYNE GIROUX","phone":"5146268201","address":"     3900 BOUL SAINT-JEAN","state":"QC","city":"DOLLARD-DES-ORMEAUX","postal":"H9G 1X1","priority":1},{"lat":"45.4574638","lng":"-73.8623825","id":7152574,"name":"INTER FLORA DESIGN","phone":"5145050512","address":"     3557 BOUL. ST-CHARLES","state":"QC","city":"KIRKLAND","postal":"H9H 3C4","priority":1},{"lat":"45.4829812","lng":"-73.7855501","id":7152575,"name":"ARES ","phone":"5146833302","address":"     2044 ROUTE TRANSCANADIEN","state":"QC","city":"DORVAL","postal":"H9P 2N4","priority":1},{"lat":"45.4640475","lng":"-73.8313424","id":7152576,"name":"LIBRAIRIE RENAUD-BRAY ","phone":"5147821222","address":"     6815 RTE TRANSCANADIENNE","state":"QC","city":"POINTE-CLAIRE","postal":"H9R 1C4","priority":1},{"lat":"45.4408387","lng":"-73.7305215","id":7152577,"name":"BIJOUTERIE JEAN-GUY AUBRY","phone":"5146315119","address":"     435 CHEMIN BORD DU LAC","state":"QC","city":"DORVAL","postal":"H9S 2A7","priority":1},{"lat":"45.4288106","lng":"-73.8271458","id":7152578,"name":"SOKO","phone":"5146977656","address":"     319 BORD-DU-LAC","state":"QC","city":"POINTE-CLAIRE","postal":"H9S 4L6","priority":1},{"lat":"45.4033963","lng":"-73.9506033","id":7152579,"name":"G. D'AOUST & CIE","phone":"5144575333","address":"     73 SAINTE-ANNE","state":"QC","city":"SAINTE-ANNE-DE-BELLEVUE","postal":"H9X 1L9","priority":1},{"lat":"46.0855606","lng":"-73.1898106","id":7152580,"name":"ENT. J.C. LIMOGES ","phone":"4508361521","address":"     873 AV GILLES VILLENEUVE","state":"QC","city":"BERTHIERVILLE","postal":"J0K 1A0","priority":1},{"lat":"46.0430371","lng":"-73.7084125","id":7152581,"name":"CADEAUX QUATRE SAISONS","phone":"4508344910","address":"     3671 QUEEN","state":"QC","city":"RAWDON","postal":"J0K 1S0","priority":1},{"lat":"45.4730705","lng":"-71.4971785","id":7152582,"name":"BOUTIQUE MICHEL BOURGEOIS","phone":"4508835522","address":"     601 PRINCIPALE","state":"QC","city":"SAINTE-MARCELLINE","postal":"J0K 2Y0","priority":1},{"lat":"46.6387134","lng":"-71.6281025","id":7152583,"name":"BIJOUTERIE HAMEL ","phone":"4505872660","address":"     4914 MARIE VICTORIN","state":"QC","city":"CONTRECOEUR","postal":"J0L 1C0","priority":1},{"lat":"45.1796663","lng":"-73.6876719","id":7152584,"name":"MON PAPILLON BLEU","phone":"4504547630","address":"     787 E NOTRE-DAME","state":"QC","city":"ST-REMI","postal":"J0L 2L0","priority":1},{"lat":"45.3135289","lng":"-74.1550256","id":7152585,"name":"B.E.M. SOUVENIRS","phone":"4507632308","address":"     62 ST-EMMANUEL","state":"QC","city":"COTEAU DU LAC","postal":"J0P 1B0","priority":1},{"lat":"45.2518662","lng":"-74.2287211","id":7152586,"name":"GESTION SMAHK ","phone":"4502673518","address":"     504 RUE PRINCIPALE","state":"QC","city":"ST-ZOTIQUE","postal":"J0P 1Z0","priority":1},{"lat":"45.8914397","lng":"-74.151216","id":7152587,"name":"POT POURRI ","phone":"4502270006","address":"     220-D CH DU LAC MILLETTE","state":"QC","city":"SAINT-SAUVEUR","postal":"J0R 1R3","priority":1},{"lat":"45.3184033","lng":"-73.3165783","id":7152588,"name":"QUINCAILLERIE G.C.","phone":"8197573202","address":"     191 RUE FOURNIERE","state":"QC","city":"MALARTIC","postal":"J0Y 1Z0","priority":1},{"lat":"45.1067315","lng":"-72.6158102","id":7152589,"name":"FLEUR ANIM. ARC EN CIEL","phone":"8197232559","address":"     1, PRINCIPALE NORD","state":"QC","city":"NOTRE-DAME-DU NORD","postal":"J0Z 3B0","priority":1},{"lat":"45.4213646","lng":"-71.8705003","id":7152590,"name":"ATELIER KAFEIN","phone":"8198207890","address":"930 13E AVENUE NORD","address2":"GALERIES QUATRE SAISONS","country":"Canada","state":"QC","city":"SHERBROOKE","postal":"J1E 3J7","priority":1},{"lat":"45.4076267","lng":"-71.8703489","id":7152591,"name":"BOUTIQUE ANGELIQUE","phone":"8193401191","address":"     860 KING EST","state":"QC","city":"SHERBROOKE","postal":"J1G 1C9","priority":1},{"lat":"45.398531","lng":"-71.927772","id":7152592,"name":"PARFUMERIE L'O DE L'AUBE","phone":"8195640814","address":"     2235 KING OUEST","state":"QC","city":"SHERBROOKE","postal":"J1J 2G2","priority":1},{"lat":"45.391065","lng":"-71.9608216","id":7152593,"name":"ROYAUME LUMINAIRE","phone":"8193480801","address":"     3675 BLANC COTEAU","state":"QC","city":"SHERBROOKE","postal":"J1L 0B4","priority":1},{"lat":"45.4014503","lng":"-71.9527399","id":7152594,"name":"LIBRAIRIE RENAUD-BRAY ","phone":"8195699957","address":"     3050 BOUL PORTLAND","address2":"     CARREFOUR L'ESTRIE","state":"QC","city":"SHERBROOKE","postal":"J1L 1K1","priority":1},{"lat":"45.4021328","lng":"-71.9572164","id":7152595,"name":"ARCHAMBAULT","phone":"8195648255","address":"     3270 BOUL. DE PORTLAND","address2":"     GROUPE ARCHAMBAULT","state":"QC","city":"SHERBROOKE","postal":"J1L 2A6","priority":1},{"lat":"45.376289","lng":"-71.978088","id":7152596,"name":"LES MAGASINS C.P.C. ","phone":"8198220432","address":"     4500 BOUL. BOURQUE","state":"QC","city":"SHERBROOKE","postal":"J1N 1S2","priority":1},{"lat":"45.7712446","lng":"-71.9282782","id":7152597,"name":"BOUTIQUE TRUCS & ASTUCES","phone":"8198794441","address":"     511 1IERE AVENUE","state":"QC","city":"ASBESTOS","postal":"J1T 3P6","priority":1},{"lat":"45.3899529","lng":"-71.9806797","id":7152598,"name":"BIJOUTERIE GABY","phone":"8198436900","address":"     1750 RUE SHERBROOKE","state":"QC","city":"MAGOG","postal":"J1X 2T3","priority":1},{"lat":"40.2975214","lng":"-75.3205036","id":7152599,"name":"LA GRANGE DES ARTISANS","phone":"8194788402","address":"     284 LINDSAY","state":"QC","city":"DRUMMONDVILLE","postal":"J2B 1G3","priority":1},{"lat":"45.8784661","lng":"-72.4883444","id":7152600,"name":"LES MAGASINS C.P.C. ","phone":"8194756775","address":"     1850 BOUL. ST-JOSEPH","state":"QC","city":"DRUMMONDVILLE","postal":"J2B 1R3","priority":1},{"lat":"45.8996723","lng":"-72.5170553","id":7152601,"name":"LIBRAIRIE RENAUD-BRAY ","phone":"8198502000","address":"     755 BOUL RENE LEVESQUE","state":"QC","city":"DRUMMONDVILLE","postal":"J2C 6Y7","priority":1},{"lat":"45.4071401","lng":"-72.7380256","id":7152602,"name":"PAPETERIE ATLAS ","phone":"4507774039","address":"     32 BOUL. PIE IX","state":"QC","city":"GRANBY","postal":"J2G 9G9","priority":1},{"lat":"45.4146689","lng":"-72.7523941","id":7152603,"name":"LIBRAIRIE RENAUD-BRAY ","phone":"4503750699","address":"     20 RUE SIMONDS NORD","state":"QC","city":"GRANBY","postal":"J2J 2L1","priority":1},{"lat":"45.2082669","lng":"-72.7459224","id":7152604,"name":"COFFRE AUX TRESORS","phone":"4502630134","address":"     175 PRINCIPALE","state":"QC","city":"COWANSVILLE","postal":"J2K 3L9","priority":1},{"lat":"45.318604","lng":"-72.6533755","id":7152605,"name":"BOUTIQUE EMA ROSE","phone":"4509191357","address":"     643 RUE SHEFFORD","state":"QC","city":"BROMONT","postal":"J2L 1C2","priority":1},{"lat":"45.2852882","lng":"-72.9786262","id":7152606,"name":"BTQ JOCELYNE CASAVANT 2017","phone":"4502932077","address":"     169 PRINCIPALE EST","state":"QC","city":"FARNHAM","postal":"J2N 1L2","priority":1},{"lat":"45.6250514","lng":"-72.9442772","id":7152607,"name":"AMANDINE","phone":"4507742618","address":"     1305 DES CASCADES OUEST","state":"QC","city":"SAINT-HYACINTHE","postal":"J2S 3H3","priority":1},{"lat":"45.6385298","lng":"-72.9648864","id":7152608,"name":"LA GALERIE COCCINELLE ","phone":"4502231220","address":"     3200 BOUL LAFRAMBOISE","address2":"     GALERIES ST-HYACINTHE","state":"QC","city":"SAINT-HYACINTHE","postal":"J2S 4Z5","priority":1},{"lat":"31.1595905","lng":"-81.3885517","id":7152609,"name":"MIMOSA FLEURS & CADEAUX","phone":"4502505252","address":"     442 ST-SIMON","state":"QC","city":"ST-HYACINTHE","postal":"J2S 5C2","priority":1},{"lat":"45.3400642","lng":"-73.288939","id":7152610,"name":"AMEUBLEMENT BOUVREUIL","phone":"4503470331","address":"     100 MOREAU","address2":"     PLACEMENTS BOUVREUIL INC.","state":"QC","city":"SAINT-JEAN-SUR-RICHELIEU","postal":"J2W 2M4","priority":1},{"lat":"45.305771","lng":"-73.2544903","id":7152611,"name":"AUREOLE ","phone":"4503594684","address":"     167 RUE CHÒNEVERT","state":"QC","city":"ST-JEAN-SUR-RICHELIEU","postal":"J2W 2Y6","priority":1},{"lat":"45.5881669","lng":"-73.3480936","id":7152613,"name":"BOUTIQUE LA PETITE MAISON","phone":"4506492220","address":"     2055 RUE PRINCIPALE","state":"QC","city":"SAINTE-JULIE","postal":"J3E 1W1","priority":1},{"lat":"45.5805595","lng":"-73.3326862","id":7152614,"name":"ROYAUME LUMINAIRE","phone":"4506497860","address":"     633 ARMAND-FRAPPIER  ","state":"QC","city":"SAINTE-JULIE","postal":"J3E 3R4","priority":1},{"lat":"45.5457471","lng":"-73.2338022","id":7152615,"name":"LES FLEURS DU MARCHE","phone":"4504642121","address":"     561 BOUL LAURIER","state":"QC","city":"BELOEIL","postal":"J3G 4J1","priority":1},{"lat":"45.5672497","lng":"-73.203394","id":7152616,"name":"BOUTIQUE EMA ROSE ","phone":"4509191857","address":"     794 RUE LAURIER","state":"QC","city":"BELOEIL","postal":"J3G 4K2","priority":1},{"lat":"45.446425","lng":"-73.287871","id":7152617,"name":"ANIMALERIE CHAMBLY","phone":"4506583125","address":"     1295 BOUL PERIGNY","state":"QC","city":"CHAMBLY","postal":"J3L 1W7","priority":1},{"lat":"45.4467046","lng":"-73.2879375","id":7152618,"name":"DECOR LACELLE LTEE","phone":"4506584071","address":"     16 PLACE CHAMBLY","state":"QC","city":"CHAMBLY","postal":"J3L 2Y7","priority":1},{"lat":"46.0428127","lng":"-73.1034122","id":7152619,"name":"BOULEVARD FLEURISTE","phone":"4507423636","address":"     158 BOUL FISET","state":"QC","city":"SOREL","postal":"J3P 3P1","priority":1},{"lat":"46.0447039","lng":"-73.1165725","id":7152620,"name":"DECOR A COEUR","phone":"4508553756","address":"     44 RUE ROI","state":"QC","city":"SOREL-TRACY","postal":"J3P 4M7","priority":1},{"lat":"46.0233718","lng":"-73.0532316","id":7152621,"name":"ROYAUME LUMINAIRE","phone":"4507430911","address":"     2863 BOUL FISET","state":"QC","city":"SOREL-TRACY","postal":"J3P 5J7","priority":1},{"lat":"46.0232721","lng":"-73.1036966","id":7152622,"name":"LIBRAIRIE RENAUD-BRAY ","phone":"4507468771","address":"     450 BOUL POLIQUIN","state":"QC","city":"SOREL","postal":"J3P 7R5","priority":1},{"lat":"46.2398806","lng":"-72.6016319","id":7152623,"name":"FLEURISTE SAVARD ","phone":"8192935933","address":"     1833 BOUL.LOUIS-FRECHETTE","state":"QC","city":"NICOLET","postal":"J3T 1M4","priority":1},{"lat":"46.2421029","lng":"-72.5955841","id":7152624,"name":"BIONDI DESIGN\/LA CADOTERIE","phone":"8192935509","address":"     2420 BOUL LOUIS-FRECHETTE","state":"QC","city":"NICOLET","postal":"J3T 1M9","priority":1},{"lat":"45.528979","lng":"-73.3445507","id":7152625,"name":"BOUTIQUE LA CHAUMIERE","phone":"4506532627","address":"     1401 MONTARVILLE","state":"QC","city":"SAINT-BRUNO","postal":"J3V 3T6","priority":1},{"lat":"45.5044247","lng":"-73.3774838","id":7152626,"name":"KOZY MON INSPIRATION","phone":"4509056599","address":"     170 BLV DES PROMENADES","state":"QC","city":"ST-BRUNO","postal":"J3V 5J5","priority":1},{"lat":"45.504376","lng":"-73.3788028","id":7152627,"name":"LIBRAIRIE RENAUD-BRAY ","phone":"4506530546","address":"     205 BOUL DES PROMENADES","address2":"     PROMENADES ST-BRUNO","state":"QC","city":"ST-BRUNO DE MONTARVILLE","postal":"J3V 5K3","priority":1},{"lat":"45.636918","lng":"-73.397615","id":7152628,"name":"VITRERIE LANDRY & FILS ","phone":"4506523959","address":"     1358 LIONEL BOULET","state":"QC","city":"VARENNES","postal":"J3X OE2","priority":1},{"lat":"45.4931293","lng":"-73.3799195","id":7152629,"name":"ARES ","phone":"4509262737","address":"     1501 BLV. DES PROMENADES","state":"QC","city":"ST-HUBERT","postal":"J3Y 5K2","priority":1},{"lat":"45.5906184","lng":"-73.4332879","id":7152630,"name":"BOUTIQUE KIFFE","phone":"4508570600","address":"     1001 BOUL MONTARVILLE ","state":"QC","city":"BOUCHERVILLE","postal":"J4B 6P5","priority":1},{"lat":"45.5708486","lng":"-73.4046257","id":7152631,"name":"ARCHAMBAULT ","phone":"4505528080","address":"     584 CHEMIN DE TOURAINE","state":"QC","city":"BOUCHERVILLE","postal":"J4B 8S5","priority":1},{"lat":"45.4721905","lng":"-73.4704678","id":7152632,"name":"ARCHAMBAULT ","phone":"4506710801","address":"     2151 BOUL. LA PINIÔRE","state":"QC","city":"BROSSARD","postal":"J4W 2T5","priority":1},{"lat":"45.4440401","lng":"-73.4360309","id":7152633,"name":"KOZY ","phone":"4509045699","address":"     9370 BOUL. LEDUC ","state":"QC","city":"BROSSARD","postal":"J4Y 0B3","priority":1},{"lat":"45.4677113","lng":"-73.4664403","id":7152634,"name":"LIBRAIRIE RENAUD-BRAY ","phone":"4504435350","address":"6925 BOUL TASCHEREAU","state":"QC","city":"BROSSARD","postal":"J4Z 1A7","priority":1},{"lat":"45.7560065","lng":"-73.4659798","id":7152635,"name":"JEAN COUTU ","phone":"4505816545","address":"     515 BOUL. LACOMBE ","state":"QC","city":"REPENTIGNY","postal":"J5Z 1P5","priority":1},{"lat":"45.7357689","lng":"-73.4881576","id":7152636,"name":"LIBRAIRIE RAFFIN. ","phone":"4505819995","address":"     29 RUE DE LYON","state":"QC","city":"REPENTIGNY","postal":"J5Z 4Z3","priority":1},{"lat":"45.502798","lng":"-73.5579317","id":7152637,"name":"BOUTIQUE HERITAGE","phone":"4505818213","address":"     260 NOTRE-DAME","state":"QC","city":"REPENTIGNY","postal":"J6A 2R6","priority":1},{"lat":"45.742263","lng":"-73.4586568","id":7152638,"name":"KOZY ","phone":"4509326599","address":"     100 BOUL. BRIEN ","state":"QC","city":"REPENTIGNY","postal":"J6A 5N4","priority":1},{"lat":"46.0213158","lng":"-73.4334634","id":7152639,"name":"LANDRY ","phone":"4507561033","address":"     320 RUE TACHE","state":"QC","city":"JOLIETTE","postal":"J6E 4A4","priority":1},{"lat":"46.0247373","lng":"-73.4409652","id":7152640,"name":"BOUT. AMANDINE JOLIETTE","phone":"4507522618","address":"     21 PLACE BOURGET NORD","state":"QC","city":"JOLIETTE","postal":"J6E 5E3","priority":1},{"lat":"46.0327605","lng":"-73.4246143","id":7152641,"name":"KOZY ","phone":"4503945699","address":"     1075 BOUL. FIRESTONE","address2":"     GALERIES JOLIETTE","state":"QC","city":"JOLIETTE","postal":"J6E 6X6","priority":1},{"lat":"49.8940476","lng":"-97.1515259","id":7152642,"name":"LIBRAIRE BOYER BEAUHARNOIS","phone":"4504295651","address":"     445 ELLICE","state":"QC","city":"BEAUHARNOIS","postal":"J6N 1X6","priority":1},{"lat":"45.2629344","lng":"-74.132549","id":7152643,"name":"SIMPLEMENT CELYNE","phone":"4503770201","address":"     51 GRANDE ILE","state":"QC","city":"VALLEYFIELD","postal":"J6S 3L9","priority":1},{"lat":"32.7809737","lng":"-79.9846376","id":7152644,"name":"LIBRAIRIES BOYER","phone":"4503736211","address":"     10 NICHOLSON","state":"QC","city":"VALLEYFIELD","postal":"J6T 4M2","priority":1},{"lat":"45.6925944","lng":"-73.6341491","id":7152645,"name":"LE PRESENT","phone":"4504926096","address":"     155 RUE SAINT-ANDRE","state":"QC","city":"TERREBONNE","postal":"J6W 3C2","priority":1},{"lat":"45.7043693","lng":"-73.6476804","id":7152646,"name":"LIBRAIRIE RENAUD-BRAY ","phone":"4504921011","address":"     1185 BOUL MOODY","address2":"     GALERIES TERREBONNE","state":"QC","city":"TERREBONNE","postal":"J6W 3Z5","priority":1},{"lat":"45.7043693","lng":"-73.6476804","id":7152647,"name":"KOZY ","phone":"4503265699","address":"     1185 BOUL. MOODY ","address2":"     GALERIES TERREBONNE","state":"QC","city":"TERREBONNE","postal":"J6W 3Z5","priority":1},{"lat":"45.7233325","lng":"-73.6830646","id":7152648,"name":"ROYAUME LUMINAIRE","phone":"4504778666","address":"     3275 BOUL DE LA PINIERE","state":"QC","city":"TERREBONNE","postal":"J6X 4P7","priority":1},{"lat":"45.6304352","lng":"-73.8197737","id":7152649,"name":"KOZY","phone":"4508185699","address":"     401 BLV LABELLE ","address2":"     PLACE ROSEMERE","state":"QC","city":"ROSEMERE","postal":"J7A 3T2","priority":1},{"lat":"45.6544458","lng":"-73.8030048","id":7152650,"name":"FLEURISTE ESPACE VERT","phone":"4504375470","address":"     20 BOUL. DES CHATEAUX","state":"QC","city":"BLAINVILLE","postal":"J7B 1Z8","priority":1},{"lat":"45.6181664","lng":"-73.8144296","id":7152651,"name":"FLEUR. AU COIN DE SOPHIE","phone":"4504207222","address":"     58 CH. DE LA GRANDE COTE","state":"QC","city":"BOISBRIAND","postal":"J7G 1C7","priority":1},{"lat":"45.428465","lng":"-74.1104578","id":7152652,"name":"ALENA KIRBY","phone":"4504550971","address":"     3200 ROUTE HARWOOD S ","state":"QC","city":"VAUDREUIL-DORION","postal":"J7V 8P2","priority":1},{"lat":"45.2604653","lng":"-74.2028751","id":7152653,"name":"INVESTISSEMENT DANIMER ","phone":"4502679621","address":"     61 ROUTE 338","state":"QC","city":"LES COTEAUX","postal":"J7X 1A2","priority":1},{"lat":"45.7940071","lng":"-74.0178793","id":7152654,"name":"LIBRAIRIE RENAUD-BRAY ","phone":"4504329100","address":"     900 BOUL GRIGNON ","address2":"     CARREFOUR DU NORD","state":"QC","city":"ST-JEROME","postal":"J7Y 3S7","priority":1},{"lat":"45.7940071","lng":"-74.0178793","id":7152655,"name":"KOZY ","phone":"4505925699","address":"     900 BOUL. GRIGNON","state":"QC","city":"SAINT-JEROME","postal":"J7Y 3S7","priority":1},{"lat":"45.9482886","lng":"-74.1267043","id":7152656,"name":"CREATIONS FLORALES","phone":"4502292744","address":"     555 BOUL SAINTE-ADELE","state":"QC","city":"SAINTE-ADELE","postal":"J8B 1A7","priority":1},{"lat":"45.9523713","lng":"-74.1345596","id":7152657,"name":"COLLECTIONS CAMPAGNE","phone":"4502299137","address":"     411 CH. PIERRE-PELADEAU","state":"QC","city":"SAINTE-ADELE","postal":"J8B 1Z3","priority":1},{"lat":"46.0468874","lng":"-74.2856708","id":7152658,"name":"FLEURS EN FOLIE","phone":"8193263563","address":"     50 RUE PRINCIPALE EST","state":"QC","city":"STE-AGATHE-DES-MONTS","postal":"J8C 1J6","priority":1},{"lat":"46.1189476","lng":"-74.5923847","id":7152659,"name":"BIJOUTERIE QUATRE SAISONS ","phone":"8194256580","address":"     878 RUE DE SAINT-JOVITE","country":"Canada","city":"MONT-TREMBLANT","postal":"J8E 3J8","priority":1},{"lat":"45.6384059","lng":"-74.3257453","id":7152660,"name":"MEC ULTRA","phone":"4504091323","address":"     505 AVENUE BETHANY","state":"QC","city":"LACHUTE","postal":"J8H 4A6","priority":1},{"lat":"45.4756531","lng":"-75.6972849","id":7152661,"name":"LIBRAIRIE RENAUD-BRAY ","phone":"8192439700","address":"     1100 BOUL MALONEY OUEST","address2":"     PROMENADES OUTAOUAIS","state":"QC","city":"GATINEAU","postal":"J8T 6G3","priority":1},{"lat":"45.4756531","lng":"-75.6972849","id":7152662,"name":"ARCHAMBAULT ","phone":"8195036006","address":"     1100 BOUL. MALONEV OUEST","address2":"     GROUPE ARCHAMBAULT","state":"QC","city":"GATINEAU","postal":"J8T 6G3","priority":1},{"lat":"45.4756531","lng":"-75.6972849","id":7152663,"name":"KOZY ","phone":"8195256599","address":"     1100 BOUL. MALONEY ","address2":"     PROMENADES GATINEAU","state":"QC","city":"GATINEAU","postal":"J8T 6G3","priority":1},{"lat":"45.4796929","lng":"-75.7004028","id":7152664,"name":"BIJOUTERIE CREATION D.A","phone":"8192461944","address":"     355-15 GREBER","state":"QC","city":"GATINEAU","postal":"J8T 6H8","priority":1},{"lat":"46.376358","lng":"-75.9835281","id":7152665,"name":"BIJOUTERIE LA PAYSANNE","phone":"8194492633","address":"     100 PRINCIPALE SUD ","state":"QC","city":"MANIWAKI","postal":"J9E 3L4","priority":1},{"lat":"46.5524705","lng":"-75.4864835","id":7152666,"name":"HOME HARDWARE MT-LAURIER","phone":"8196231110","address":"     939 BL ALBINY-PAQUETTE","state":"QC","city":"MONT-LAURIER","postal":"J9L 3J1","priority":1},{"lat":"48.5671649","lng":"-78.1165459","id":7152667,"name":"GYVA BOUTIQUE DE BUREAU","phone":"8197325531","address":"     221 PRINCIPAL SUD","state":"QC","city":"AMOS","postal":"J9T 2J8","priority":1},{"lat":"40.7360697","lng":"-73.9932183","id":7152668,"name":"VARIETES DESCHESNES","phone":"8193335020","address":"     69 5IEME AVENUE EST","state":"QC","city":"LASARRE","postal":"J9Z 1L1","priority":1},{"lat":"45.5461608","lng":"-73.9223875","id":7152669,"name":"ESPACE PAPIER ","phone":"4503232222","address":"     150-2801 BLV DES PROMENAD","state":"QC","city":"STE-MARTHE-SUR-LE-LAC","postal":"JON 1P0","priority":1},{"lat":"46.2768179","lng":"-74.7302724","id":7152670,"name":"PROXIM","phone":"8196861231","address":"     6860 BOUL CURE LABELLE","state":"QC","city":"LABELLE","postal":"JOT 1H0","priority":1},{"lat":"38.3642973","lng":"-90.3633152","id":7152671,"name":"CASHMERE & ROSE","phone":"6132561594","address":"     102 MILL ST.","state":"ON","city":"ALMONTE","postal":"K0A 1A0","priority":1},{"lat":"45.2737165","lng":"-75.275235","id":7152672,"name":"LADY JO-ANGELISTIC","phone":"6133701772","address":"     1252 ST-JACQUES","state":"ON","city":"EMBRUN","postal":"K0A 1W0","priority":1},{"lat":"41.8301609","lng":"-86.258315","id":7152673,"name":"VANKLEEK COTTAGE","phone":"6136782691","address":"     105 MAIN STREET","state":"ON","city":"VANKLEEK HILL","postal":"K0B 1R0","priority":1},{"lat":"48.093165","lng":"-105.6433089","id":7152674,"name":"AULD KIRKTOWN","phone":"6133473527","address":"     20383 HIGHWAY 2 & 401","state":"ON","city":"SOUTH LANCASTER","postal":"K0C 2C0","priority":1},{"lat":"34.5400242","lng":"-112.4685025","id":7152675,"name":"HOME & BEYOND","phone":"6132582910","address":"304 PRESCOTT STREETÿ","state":"ON","city":"KEMPTVILLE","postal":"K0G 1J0      ","priority":1},{"lat":"38.7088159","lng":"-75.0813933","id":7152676,"name":"MRS.MCGARRIGLES FINE FOODS","phone":"6132693752","address":"     311 ST.LAWRENCE ST.","state":"ON","city":"MERRICKVILLE","postal":"K0G 1N0","priority":1},{"lat":"45.4986394","lng":"-77.6253265","id":7152677,"name":"GIFT IT GRAY","phone":"6137561832","address":"     19492 OPEONGO RD","state":"ON","city":"BARRY'S BAY","postal":"K0J 1B0","priority":1},{"lat":"40.8872981","lng":"-74.0409395","id":7152678,"name":"GREEN GABLES GIFTS & GREET","phone":"6133931494","address":"     286 MAIN STREET","state":"ON","city":"BLOOMFIELD","postal":"K0K 1G0","priority":1},{"lat":"44.3825839","lng":"-78.383245","id":7152679,"name":"BRIDGENORTH PHARMACY","phone":"7052927200","address":"     871 WARD STREET","state":"ON","city":"BRIDGENORTH","postal":"K0L 1H0","priority":1},{"lat":"44.4625384","lng":"-78.3716233","id":7152680,"name":"WHETUNG OJIBWA CENTRE","phone":"7056573661","address":"     875 MISSISSAUGA ST.","state":"ON","city":"CURVE LAKE FIRST NATION","postal":"K0L 1R0","priority":1},{"lat":"43.6590482","lng":"-70.2891382","id":7152681,"name":"BIGLEY SHOES & CLOTHING","phone":"7057382522","address":"     49 BOLTON ST.","state":"ON","city":"BOBCAYGEON","postal":"K0M 1A0","priority":1},{"lat":"43.649006","lng":"-79.3747537","id":7152682,"name":"PHARMASAVE","phone":"7058872320","address":"     53 COLBORNE STREET","state":"ON","city":"FENELON FALLS","postal":"K0M 1A0","priority":1},{"lat":"42.3550292","lng":"-71.3189024","id":7152683,"name":"CRANBERRY COTTAGE","phone":"7054571844","address":"     162 HIGHLAND ST","state":"ON","city":"HALIBURTON","postal":"K0M 1S0","priority":1},{"lat":"45.4798983","lng":"-75.515191","id":7152684,"name":"ACCENT DECOR","phone":"6138341722","address":"     110 PLACE D'ORLEANS","state":"ON","city":"ORLEANS","postal":"K1C 2L9","priority":1},{"lat":"45.3898331","lng":"-75.6792727","id":7152685,"name":"C.A. PARADIS","phone":"6137312866","address":"     1314 BANK STREET","state":"ON","city":"OTTAWA","postal":"K1S 3Y4","priority":1},{"lat":"45.3455841","lng":"-75.732034","id":7152686,"name":"BRASS'N CRAFTS","phone":"6132246219","address":"     1642 MERIVALE ROAD","state":"ON","city":"NEPEAN","postal":"K2G 4A1","priority":1},{"lat":"45.2758087","lng":"-75.7165893","id":7152687,"name":"GUARDIAN STRANDHERD PHARM.","phone":"6138257400","address":"     3091 STRANDHERD DR.","state":"ON","city":"NEPEAN","postal":"K2G 4R9","priority":1},{"lat":"45.3105818","lng":"-75.9062545","id":7152688,"name":"GRACE IN THE KITCHEN","phone":"6135214818","address":"255 KANATA AVENUE #AA2","country":"Canada","state":"ON","city":"KANATA","postal":"K2T 1K5 ","priority":1},{"lat":"45.3108116","lng":"-75.9199686","id":7152689,"name":"TWEED & HICKORY","phone":"6132717052","address":"     499 TERRY FOX DRIVE","state":"ON","city":"KANATA","postal":"K2T 1H7","priority":1},{"lat":"45.5430076","lng":"-75.3002009","id":7152690,"name":"LAMOUREUX HOME HARDWARE","phone":"6134464663","address":"     2720 RUE LAURIER ","state":"ON","city":"ROCKLAND","postal":"K4K 1K5","priority":1},{"lat":"49.2827716","lng":"-123.0992943","id":7152691,"name":"MAXI BURO","phone":"6136327007","address":"     222 MAIN STREET","state":"ON","city":"HAWKESBURY","postal":"K6A 1A5","priority":1},{"lat":"33.7456473","lng":"-117.8493239","id":7152692,"name":"TWEED & HICKORY","phone":"6139337110","address":"     27 FIRST STREET EAST","state":"ON","city":"CORNWALL","postal":"K6H 1K5","priority":1},{"lat":"38.7986822","lng":"-77.0462707","id":7152693,"name":"MRS B'S GIFTS & HOME DECOR","phone":"6139370222","address":"     609 PITT S","state":"ON","city":"CORNWALL","postal":"K6J 3R8","priority":1},{"lat":"40.7476352","lng":"-73.302726","id":7152694,"name":"LAURA'S FLOWERS FINE GIFTS","phone":"6139361777","address":"     1140 BROOKDALE AVE","state":"ON","city":"CORNWALL","postal":"K6J 4P4","priority":1},{"lat":"41.0354443","lng":"-73.6270603","id":7152695,"name":"CASUAL LIVING","phone":"6133455270","address":"     75 WILLIAM ST.","state":"ON","city":"BROCKVILLE","postal":"K6V 4V6","priority":1},{"lat":"40.8971509","lng":"-73.9065883","id":7152696,"name":"THE CHEDDAR STOP","phone":"6132573000","address":"     10471 UNIT B,HIGHWAY 7","state":"ON","city":"CARLETON PLACE","postal":"K7C OC4","priority":1},{"lat":"43.2187115","lng":"-79.9867348","id":7152697,"name":"KELLY'S FLOWERS & GIFT","phone":"6132677065","address":"     17 WILSON ST. E.","state":"ON","city":"PERTH","postal":"K7H 1L3","priority":1},{"lat":"44.2389163","lng":"-76.4548284","id":7152698,"name":"CANEX SUPERMART ","phone":"6135446110","address":"     29 NIAGARA PARK","state":"ON","city":"KINGSTON","postal":"K7K 7B4","priority":1},{"lat":"42.1201411","lng":"-71.1035609","id":7152699,"name":"COOKE'S OLD WORLD","phone":"6135487721","address":"     61 BROCK STREET","state":"ON","city":"KINGSTON","postal":"K7L 1R8","priority":1},{"lat":"44.2823114","lng":"-76.4352624","id":7152700,"name":"ENCHANTED CREATIONS","phone":"6135483460","address":"     1559 HWY 15","state":"ON","city":"KINGSTON","postal":"K7L 5H6","priority":1},{"lat":"44.243112","lng":"-76.56358","id":7152701,"name":"HALLMARK ","phone":"6133847612","address":"     616-3 GARDINERS ROAD","state":"ON","city":"KINGSTON","postal":"K7M 9B8","priority":1},{"lat":"45.8256515","lng":"-77.1144206","id":7152702,"name":"CUSTOM DRAPERIES","phone":"6137356793","address":"     76 PEMBROKE STREET WEST","state":"ON","city":"PEMBROKE","postal":"K8A 5M6","priority":1},{"lat":"45.9130455","lng":"-77.276901","id":7152703,"name":"CANEX SUPERMART STORE","phone":"6136875595","address":"     14 YPRES BLVD","state":"ON","city":"PETAWAWA","postal":"K8H 1C6","priority":1},{"lat":"44.1691848","lng":"-77.3583737","id":7152704,"name":"KELLYS GUARDIAN DRUGS","phone":"6139625387","address":"     411 BRIDGE STREET EAST","state":"ON","city":"BELLEVILLE","postal":"K8N 1P7","priority":1},{"lat":"44.1861321","lng":"-77.4086942","id":7152705,"name":"LIVE, LOVE & LAUGH FLOWERS","phone":"6139691725","address":"     222 BELL BLVD.","state":"ON","city":"BELLEVILLE","postal":"K8P 5L7","priority":1},{"lat":"43.4766115","lng":"-79.732638","id":7152706,"name":"H.D. ROLF","phone":"6133923383","address":"     103 DUNDAS ST. W.","state":"ON","city":"TRENTON","postal":"K8V 3P4","priority":1},{"lat":"-33.8681526","lng":"151.2071675","id":7152707,"name":"METAPHORHOME","phone":"7057400516","address":"     388 GEORGE STREET NORTH","state":"ON","city":"PETERBOROUGH","postal":"K9H 3R3","priority":1},{"lat":"44.290252","lng":"-78.311017","id":7152708,"name":"MCKNIGHTS FLOWERS & GIFTS","phone":"7057491530","address":"     41 LANSDOWNE STREET W.","state":"ON","city":"PETERBOROUGH","postal":"K9J 1X8","priority":1},{"lat":"44.300409","lng":"-78.3204768","id":7152709,"name":"AVANT-GARDEN SHOP","phone":"7057430068","address":"     165 SHERBROOKE ST.","state":"ON","city":"PETERBOROUGH","postal":"K9J 2N2","priority":1},{"lat":"40.8723181","lng":"-74.3141586","id":7152710,"name":"GARRY'S GARDEN GALLERY","phone":"7053249574","address":"     5 COMMERCE RD.","state":"ON","city":"LINDSAY","postal":"K9V 5Y3","priority":1},{"lat":"43.2177287","lng":"-79.7603065","id":7152711,"name":"MILLBRROK MERCANTILE","phone":"7059326455","address":"     28 KING STREET EAST","state":"ON","city":"MILLBROOK","postal":"L0A 1G0","priority":1},{"lat":"44.1358489","lng":"-79.3084623","id":7152712,"name":"THE CORNER DECOR & MORE","phone":"9054736588","address":"     19124 CENTRE STREET","state":"ON","city":"MT.ALBERT","postal":"L0G 1M0","priority":1},{"lat":"43.8438033","lng":"-79.6275844","id":7152713,"name":"AMBIANCE CHINA & GIFTS","phone":"9058934478","address":"     10489 ISLINGTON AVENUE","state":"ON","city":"KLEINBURG","postal":"L0J 1C0","priority":1},{"lat":"44.2912831","lng":"-79.8899691","id":7152714,"name":"CANEX SUPERMART STORE ","phone":"7054241801","address":"     36 EL ALAMEIN ROAD O-121","state":"ON","city":"BORDEN","postal":"L0M 1C0","priority":1},{"lat":"42.0338015","lng":"-87.7224758","id":7152716,"name":"AVANT-GARDE EMPORIUM","phone":"9055628370","address":"     3744 MAIN STREET","state":"ON","city":"JORDAN","postal":"L0R 1S0","priority":1},{"lat":"43.332524","lng":"-79.899615","id":7152717,"name":"WEEKS HOME HARDWARE","phone":"9056896618","address":"     71 HAMILTON ST. N","state":"ON","city":"WATERDOWN","postal":"L0R 2H0","priority":1},{"lat":"32.7778544","lng":"-79.9342853","id":7152718,"name":"SERENDIPITY","phone":"9054688881","address":"     106 QUEEN ST.","state":"ON","city":"NIAGARA-ON-THE-LAKE","postal":"L0S 1J0","priority":1},{"lat":"42.9517798","lng":"-79.0577889","id":7152719,"name":"STEVENSVILLE GARDEN GALL.","phone":"9053822661","address":"     2821 STEVENSVILLE ROAD","state":"ON","city":"STEVENSVILLE","postal":"L0S 1S0","priority":1},{"lat":"43.225662","lng":"-79.118525","id":7152720,"name":"PENNER BUILDING CENTRE HH","phone":"9054683242","address":"     700 PENNER STREET","state":"ON","city":"VIRGIL","postal":"L0S 1T0","priority":1},{"lat":"44.0384864","lng":"-78.3069999","id":7152722,"name":"HERMAS FINE FOODS & GIFTS","phone":"9058859250","address":"     5316 R#2, HWY 28","state":"ON","city":"PORT HOPE","postal":"L1A 3V6","priority":1},{"lat":"42.904435","lng":"-78.923252","id":7152723,"name":"AUDACIOUS","phone":"9059140931","address":"     43 KING STREET E","state":"ON","city":"BOWMANVILLE","postal":"L1C 1N1","priority":1},{"lat":"43.9218362","lng":"-78.874578","id":7152724,"name":"KAY'S PLACE","phone":"9054330928","address":"     922 SIMCOE ST.NORTH","state":"ON","city":"OSHAWA","postal":"L1G 4W2","priority":1},{"lat":"43.6508508","lng":"-79.3691491","id":7152725,"name":"VICTORY CIGARS ","phone":"9054430193","address":"     215 KING ST.E","state":"ON","city":"OSHAWA","postal":"L1H 1C5","priority":1},{"lat":"43.9558168","lng":"-78.9606858","id":7152726,"name":"ENDLESS IDEAS","phone":"9056553722","address":"     3 CASSELS ROAD EAST","state":"ON","city":"BROOKLIN","postal":"L1M 1A4","priority":1},{"lat":"37.5763199","lng":"-84.3062272","id":7152727,"name":"ROUSSEAU'S","phone":"9056683483","address":"     216 MARY STREET E","state":"ON","city":"WHITBY","postal":"L1N 2P5","priority":1},{"lat":"43.859097","lng":"-78.8970939","id":7152728,"name":"NELLA CASA BELLA","phone":"4168434958","address":"   1751 WENTWORTH ST.","state":"ON","city":"WHITBY","postal":"L1N 8V5","priority":1},{"lat":"43.9118566","lng":"-78.9726636","id":7152729,"name":"SHERIDAN NURSERIES ","phone":"9056860844","address":"     410 TAUNTON ROAD WEST","state":"ON","city":"WHITBY","postal":"L1P 2A9","priority":1},{"lat":"43.8425739","lng":"-79.0272922","id":7152730,"name":"ADRIENNE'S FLOWERS & GIFTS","phone":"9056832370","address":"     250 BAYLY STREET WEST","state":"ON","city":"AJAX","postal":"L1S 3V4","priority":1},{"lat":"43.8326372","lng":"-79.0328549","id":7152731,"name":"TOPFIRE FIREPLACE ","phone":"9054264100","address":"     487 WESTNEY RD. S ","state":"ON","city":"AJAX","postal":"L1S 6W8","priority":1},{"lat":"43.103575","lng":"-79.097975","id":7152732,"name":"MULLEN GARDEN MARKET","phone":"9053747100","address":"     4856 DRUMMOND ROAD","state":"ON","city":"NIAGARA FALLS","postal":"L2E 6E1","priority":1},{"lat":"40.6601801","lng":"-74.2247879","id":7152733,"name":"VINE FLORAL","phone":"9059347134","address":"     310 VINE STREET","state":"ON","city":"ST. CATHARINES","postal":"L2M 4T3","priority":1},{"lat":"43.1550767","lng":"-79.2692964","id":7152734,"name":"AROMAS NATURALLY","phone":"9056878181","address":"     1A-274 FOURTH AVE.","state":"ON","city":"ST.CATHARINES","postal":"L2S 0B6","priority":1},{"lat":"39.9667302","lng":"-83.0066779","id":7152735,"name":"GRANTS-THE PICKET FENCE","phone":"9058352002","address":"     230 WEST ST.","state":"ON","city":"PORT COLBORNE","postal":"L3K 4E3","priority":1},{"lat":"37.7937366","lng":"-80.3014282","id":7152736,"name":"COCOON GIFTS AND HOME DECO","phone":"9053097679","address":"     18 MAIN STREET WEST","state":"ON","city":"GRIMSBY","postal":"L3M 1R4","priority":1},{"lat":"43.1937398","lng":"-79.5639439","id":7152737,"name":"SPECIAL EFFECTS ART SHOPPE","phone":"9059459787","address":"     63 MAIN STREET WEST","state":"ON","city":"GRIMSBY","postal":"L3M 4H1","priority":1},{"lat":"43.086445","lng":"-73.8169546","id":7152738,"name":"MARKHAM STOUFFVILLE HOSPIT","phone":"9054727373","address":"     381 CHURCH ST.","state":"ON","city":"MARKHAM","postal":"L3P 7P3","priority":1},{"lat":"43.8795857","lng":"-79.3161052","id":7152739,"name":"THE VILLAGE GROCER","phone":"9059400655","address":"     4476 16TH AVE.","state":"ON","city":"MARKHAM","postal":"L3R 0M1","priority":1},{"lat":"43.8581965","lng":"-79.3209417","id":7152740,"name":"SHERIDAN NURSERIES ","phone":"9054772253","address":"     4077 HWY#7 EAST","state":"ON","city":"UNIONVILLE","postal":"L3R 1L5","priority":1},{"lat":"37.1266209","lng":"-96.1884959","id":7152741,"name":"CIGAR BODEGA","phone":"9055131810","address":"     205 MAIN STREET","state":"ON","city":"UNIONVILLE","postal":"L3R 2G8","priority":1},{"lat":"43.825251","lng":"-79.359473","id":7152742,"name":"LOTHANTIQUE","phone":"9054793593","address":"     2600 JOHN ST. ","state":"ON","city":"MARKHAM","postal":"L3R 3W3","priority":1},{"lat":"44.6092333","lng":"-79.4167341","id":7152743,"name":"MARIPOSA MARKET","phone":"7053258885","address":"     109 MISSISSAUGA ST EAST","state":"ON","city":"ORILLIA","postal":"L3V 1V6","priority":1},{"lat":"44.0347354","lng":"-79.476211","id":7152744,"name":"SELECT ART GALLERIES","phone":"8003879303","address":"     16686 YONGE STREET","state":"ON","city":"NEWMARKET","postal":"L3X 3A1","priority":1},{"lat":"41.4792977","lng":"-73.2134921","id":7152745,"name":"SANCTUARY INT'L DAY SPAS","phone":"9059539772","address":"     57 MAIN ST. SOUTH","state":"ON","city":"NEWMARKET","postal":"L3Y 3Y5","priority":1},{"lat":"44.056104","lng":"-79.4855044","id":7152746,"name":"HALLMARK - THE VERY BEST","phone":"9058957641","address":"     17600 YONGE ST ","state":"ON","city":"NEWMARKET","postal":"L3Y 4Z1","priority":1},{"lat":"53.5449044","lng":"-113.9072144","id":7152747,"name":"ADM DESIGN ","phone":"9058369890","address":"    505 QUEEN STREET        ","country":"Canada","state":"ON","city":"NEWMARKET","postal":"  L3Y 2H5 ","priority":1},{"lat":"44.3928694","lng":"-79.533614","id":7152748,"name":"ADM DESIGN ","phone":"7052941119","address":"295 SUNSEEKER AVENUE ","state":"ON","city":"INNISFIL","postal":"L9S 0J7","priority":1},{"lat":"44.1721801","lng":"-79.5781936","id":7152749,"name":"BRADFORD GREENHOUSES ","phone":"9057752942","address":"     3817 COUNTY RD. ","state":"ON","city":"BRADFORD","postal":"L3Z 2B2","priority":1},{"lat":"40.1556181","lng":"-75.4046869","id":7152750,"name":"U AT HOME","phone":"4163715339","address":"     33 PRINCE DRIVE","state":"ON","city":"BRADFORD","postal":"L3Z 3B7","priority":1},{"lat":"44.0460593","lng":"-122.9241296","id":7152751,"name":"CENTERPIECE FLOWERS","phone":"9056403232","address":"     5892 MAIN ST","state":"ON","city":"STOUFFVILLE","postal":"L4A 1S8","priority":1},{"lat":"43.8449491","lng":"-79.3835118","id":7152752,"name":"SOPHIE","phone":"9057078111","address":"     550 HWY #7 EAST TIMES S.","state":"ON","city":"RICHMOND HILL","postal":"L4B 3Z4","priority":1},{"lat":"43.8548545","lng":"-79.436539","id":7152753,"name":"BLOSSOM MOMENTS","phone":"6479911777","address":"     9350 YONGE ST.","address2":"Hillcrest Mall","state":"ON","city":"RICHMOND HILL","postal":"L4C 5G2","priority":1},{"lat":"43.9878213","lng":"-79.4667255","id":7152754,"name":"AURORA'S KITCHEN ACCENTS","phone":"9058410885","address":"     14800 YONGE ST.","state":"ON","city":"AURORA","postal":"L4G 1N3","priority":1},{"lat":"44.0032221","lng":"-79.4681692","id":7152755,"name":"AG ENHANCIVE CLINIC","phone":"9055037546","address":"     15387 YONGE STREET","state":"ON","city":"AURORA","postal":"L4G 1P1","priority":1},{"lat":"43.8252504","lng":"-79.4270863","id":7152757,"name":"TREASURES & COMPANY","phone":"9057630349","address":"     8108 YONGE ST. ","state":"ON","city":"THORNHILL","postal":"L4J 1W4","priority":1},{"lat":"43.795828","lng":"-79.432368","id":7152758,"name":"CIGARS FOR YOU","phone":"9057717076","address":"     330 STEELES AVENUE WEST","state":"ON","city":"THORNHILL","postal":"L4J 6W9","priority":1},{"lat":"43.8089597","lng":"-79.4622583","id":7152759,"name":"ARTZ AXENTZ BOUTIQUE","phone":"9057638384","address":"     1118 CENTRE ST. ","state":"ON","city":"THORNHILL","postal":"L4J 7R9","priority":1},{"lat":"43.832758","lng":"-79.5236785","id":7152760,"name":"SANCTUARY INT DAY SPAS","phone":"9054171683","address":"     2701 RUTHERFORD RD","state":"ON","city":"VAUGHAN","postal":"L4K 2N6","priority":1},{"lat":"43.8086443","lng":"-79.550729","id":7152761,"name":"THE CIGAR PLACE & GIFTS","phone":"9052649159","address":"     3650 LANGSTAFF RD","state":"ON","city":"WOODBRIDGE","postal":"L4L 9A8","priority":1},{"lat":"44.389117","lng":"-79.6885893","id":7152762,"name":"OUR HOUSE","phone":"7057250829","address":"     55 DUNLOP ST. EAST","state":"ON","city":"BARRIE","postal":"L4M 1A2","priority":1},{"lat":"40.7703722","lng":"-74.2200212","id":7152763,"name":"FLOWER PLACE","phone":"7057370314","address":"     7 GLENWOOD AVE","state":"ON","city":"BARRIE","postal":"L4N 1R3","priority":1},{"lat":"44.3801843","lng":"-79.7130376","id":7152764,"name":"INSPIRED BY ART GALLERY","phone":"7057226001","address":"     15 CEDAR POINTE DRIVE","state":"ON","city":"BARRIE","postal":"L4N 5R7","priority":1},{"lat":"33.3713038","lng":"-79.2832782","id":7152765,"name":"SIMPLY COUNTRY","phone":"7055267630","address":"     323 KING STREET","state":"ON","city":"MIDLAND","postal":"L4R 3M5","priority":1},{"lat":"43.6297809","lng":"-79.6356718","id":7152766,"name":"RAWAS CHINA & GIFTS","phone":"9056299330","address":"     5167 TOMKEN ROAD","state":"ON","city":"MISSISSAUGA","postal":"L4W 1P1","priority":1},{"lat":"43.6379721","lng":"-79.5867252","id":7152767,"name":"SHERIDAN NURSERIES ","phone":"9056243722","address":"     2069 BURNHAMTHORPE RD E.","state":"ON","city":"ETOBICOKE","postal":"L4X 2S7","priority":1},{"lat":"43.5927277","lng":"-79.643175","id":7152768,"name":"BLOSSOM MOMENTS","phone":"6479911777","address":"     100 CITY CENTRE DRIVE","address2":"SQ1","state":"ON","city":"MISSISSAUGA","postal":"L5B 2C9","priority":1},{"lat":"43.5536351","lng":"-79.5830515","id":7152769,"name":"ZEST FOR LIVING","phone":"9054860191","address":"     113 LAKESHORE RD EAST.","state":"ON","city":"PORT CREDIT","postal":"L5G 1E2","priority":1},{"lat":"43.5028249","lng":"-79.6204697","id":7152770,"name":"SHERIDAN NURSERIES ","phone":"9058220251","address":"     606 SOUTHDOWN RD","state":"ON","city":"MISSISSAUGA","postal":"L5J 2Y4","priority":1},{"lat":"43.5144894","lng":"-79.6921293","id":7152771,"name":"TAPS ","phone":"4167850224","address":"     3050 VEGA BLVD","state":"ON","city":"MISSISSAUGA","postal":"L5L 5X8","priority":1},{"lat":"43.5804341","lng":"-79.7123582","id":7152772,"name":"CRAFTED DECOR","phone":"9055679795","address":"     232 QUEEN STREET SOUTH","state":"ON","city":"MISSISSAUGA-STREETSVILLE","postal":"L5M 1L5","priority":1},{"lat":"43.5656048","lng":"-79.7291428","id":7152773,"name":"ERIN MILLS PAINT & DECOR","phone":"9058581708","address":"     5636 GLEN ERIN DRIVE ","state":"ON","city":"MISSISSAUGA","postal":"L5M 6B1","priority":1},{"lat":"43.0081303","lng":"-76.1443841","id":7152774,"name":"NEW LINE INCENTIVES","phone":"9052942224","address":"     138 ANDERSON AVE","state":"ON","city":"MARKHAM","postal":"L6E 1A4","priority":1},{"lat":"43.4443283","lng":"-79.6692869","id":7152775,"name":"CAROL'S NICETY'S ","phone":"9053380275","address":"     146 LAKESHORE ROAD EAST","state":"ON","city":"OAKVILLE","postal":"L6J 1H4","priority":1},{"lat":"43.4552802","lng":"-79.6856849","id":7152776,"name":"HOUSE OF CIGARS","phone":"9058493845","address":"     117 CROSS AVENUE ","state":"ON","city":"OAKVILLE","postal":"L6J 2W7","priority":1},{"lat":"33.7523008","lng":"-84.240907","id":7152777,"name":"EPIPHANY SPA AND BOUTIQUE","phone":"9058151772","address":"     1400 CORNWALL RD ","state":"ON","city":"OAKVILLE","postal":"L6J 7W5","priority":1},{"lat":"43.3954702","lng":"-79.7101528","id":7152778,"name":"DENNINGER'S","phone":"9058273717","address":"     2400 LAKESHORE RD WEST","state":"ON","city":"OAKVILLE","postal":"L6L 1H5","priority":1},{"lat":"43.7154885","lng":"-79.72246","id":7152779,"name":"COLLECTIBLES","phone":"9054588934","address":"     25 PEEL CENTRE DR ","state":"ON","city":"BRAMPTON","postal":"L6T 3R5","priority":1},{"lat":"43.8728422","lng":"-79.7272804","id":7152780,"name":"BLACK TIE GIFTS & ACCESSORIES","phone":"9055334438","address":"     15 ALLAN DRIVE","state":"ON","city":"BOLTON","postal":"L7E 2B5","priority":1},{"lat":"43.6500601","lng":"-79.8935877","id":7152781,"name":"EMERALD ISLE","phone":"9058732753","address":"     265 GUELPH ST.","state":"ON","city":"GEORGETOWN","postal":"L7G 4B3","priority":1},{"lat":"43.3550218","lng":"-79.7688727","id":7152782,"name":"SILVER & GOLD JEWELLERS","phone":"9056310356","address":"     4051 NEW STREET","state":"ON","city":"BURLINGTON","postal":"L7L 1S8","priority":1},{"lat":"43.3529449","lng":"-79.7889586","id":7152783,"name":"SANCTUARY INT'L DAY SPAS","phone":"9056395000","address":"     3235 FAIRVIEW STREET","state":"ON","city":"BURLINGTON","postal":"L7N 3L1","priority":1},{"lat":"43.3487965","lng":"-79.7927521","id":7152784,"name":"DENNINGER'S","phone":"9056390510","address":"     777 GUELPH LINE ","state":"ON","city":"BURLINGTON","postal":"L7R 3N2","priority":1},{"lat":"43.3487965","lng":"-79.7927521","id":7152785,"name":"CLASSIQUE DECOR","phone":"9056358779","address":"     777 GUELPH LINE ","state":"ON","city":"BURLINGTON","postal":"L7R 3N2","priority":1},{"lat":"43.3112734","lng":"-79.8475526","id":7152786,"name":"ALDERSHOT FRAME STUDIO","phone":"9056810175","address":"     175 PLAINS RD.E","state":"ON","city":"BURLINGTON","postal":"L7T 2C4","priority":1},{"lat":"33.7092584","lng":"-78.9645518","id":7152787,"name":"ELM RIDGE LIGHTING","phone":"9056641912","address":"     389 BARTON ST","state":"ON","city":"STONEY CREEK","postal":"L8E 2L2","priority":1},{"lat":"43.227274","lng":"-79.7628704","id":7152788,"name":"DENNINGER'S","phone":"9056625237","address":"     826 QUEENSTON RD.","state":"ON","city":"STONEY CREEK","postal":"L8G 4A8","priority":1},{"lat":"43.2294311","lng":"-79.775295","id":7152789,"name":"WEEKS HOME HARDWARE","phone":"2894260215","address":"     640 QUEENSTON ROAD ","state":"ON","city":"HAMILTON","postal":"L8K 1K2","priority":1},{"lat":"43.2641061","lng":"-79.8652324","id":7152790,"name":"SALVO'S GIFTS ","phone":"9055290093","address":"     9 BARTON ST.EAST","state":"ON","city":"HAMILTON","postal":"L8L 2V6","priority":1},{"lat":"43.6521242","lng":"-79.3652696","id":7152791,"name":"DENNINGER'S ","phone":"9055288468","address":"     284 KING STREET EAST","state":"ON","city":"HAMILTON","postal":"L8N 1B7","priority":1},{"lat":"43.8916177","lng":"-78.8951394","id":7152792,"name":"BRANCH DESIGN","phone":"9055157756","address":"     850 KING. ST WEST","state":"ON","city":"HAMILTON","postal":"L8S 1K3","priority":1},{"lat":"43.2614725","lng":"-79.9062171","id":7152793,"name":"THE CASUAL GOURMET","phone":"9055229398","address":"     1027 KING STREET WEST","state":"ON","city":"HAMILTON","postal":"L8S 1L6","priority":1},{"lat":"43.2285052","lng":"-79.8362833","id":7152794,"name":"FENNELL&GAGE HOME HARDWARE","phone":"9053832131","address":"     983 FENNELL AVE EAST","state":"ON","city":"HAMILTON","postal":"L8T 1R1","priority":1},{"lat":"43.1942579","lng":"-79.8394589","id":7152795,"name":"WHITE FLAME COMPANY","phone":"9053857251","address":"     10 HEMPSTEAD DRIVE","state":"ON","city":"HAMILTON","postal":"L8W 2E7","priority":1},{"lat":"43.2065904","lng":"-79.892331","id":7152796,"name":"SALVO'S GIFTS","phone":"9055756952","address":"     1508 UPPER JAMES","state":"ON","city":"HAMILTON","postal":"L9B 1K3","priority":1},{"lat":"43.2129789","lng":"-79.8873826","id":7152797,"name":"DENNINGER'S","phone":"9053894113","address":"     1289 UPPER JAMES ST","state":"ON","city":"HAMILTON","postal":"L9C 3B3","priority":1},{"lat":"43.2153227","lng":"-79.9905578","id":7152798,"name":"ANCASTER JEWELLERS","phone":"9056486011","address":"     88 WILSON ST. WEST","state":"ON","city":"ANCASTER","postal":"L9G 1N2","priority":1},{"lat":"-33.9204708","lng":"151.0377883","id":7152799,"name":"THE KEEPING ROOM","phone":"9056275880","address":"     6 CROSS STREET","state":"ON","city":"DUNDAS","postal":"L9H 2R4","priority":1},{"lat":"45.420822","lng":"-75.7006202","id":7152800,"name":"LUKES COUNTRY STORE","phone":"9059853011","address":"     207 QUEEN STREET","state":"ON","city":"PORT PERRY","postal":"L9L 1B9","priority":1},{"lat":"44.1093185","lng":"-79.1194391","id":7152801,"name":"KEITH'S FLOWERS","phone":"9058523029","address":"     14 BROCK STREET EAST","state":"ON","city":"UXBRIDGE","postal":"L9P 1P1","priority":1},{"lat":"44.1438292","lng":"-79.897011","id":7152802,"name":"ALLISTON BOTANIX","phone":"7054353181","address":"     7627 HWY 89 W.","state":"ON","city":"ALLISTON","postal":"L9R 1V8","priority":1},{"lat":"41.6610894","lng":"-71.4501214","id":7152803,"name":"THE SHOE STOP","phone":"6473009384","address":"     207 MAIN STREET EAST","state":"ON","city":"MILTON","postal":"L9T 1N7","priority":1},{"lat":"41.4015999","lng":"-81.5505222","id":7152805,"name":"PEAR HOME","phone":"5199411101","address":"     185 BROADWAY AVE.","state":"ON","city":"ORANGEVILLE","postal":"L9W 1K2","priority":1},{"lat":"44.3619154","lng":"-79.7482242","id":7152806,"name":"BRADFORD GREENHOUSES ","phone":"7057259913","address":"     4346 HIGHWAY 90","state":"ON","city":"SPRINGWATER","postal":"L9X 1T7","priority":1},{"lat":"43.7744294","lng":"-79.2460844","id":7152807,"name":"SHERIDAN NURSERIES ","phone":"4164386931","address":"     1774 ELLESMERE ROAD","state":"ON","city":"SCARBOROUGH","postal":"M1H 2V5","priority":1},{"lat":"41.3235336","lng":"-122.3260847","id":7152808,"name":"LUXE HOME DECOR","phone":"4167979852","address":"     1434 KINGSTON ROAD","state":"ON","city":"TORONTO","postal":"M1N 1R3","priority":1},{"lat":"43.7285073","lng":"-79.4183393","id":7152809,"name":"DANA JORDAN","phone":"4165120553","address":"1732 AVENUE ROAD ","state":"ON","city":"NORTH YORK","postal":"M5M 3Y6","priority":1},{"lat":"43.7677381","lng":"-79.3854506","id":7152810,"name":"BELLE DE PROVENCE ","phone":"4165122767","address":"     2901 BAYVIEW AVE.","state":"ON","city":"WILLOWDALE","postal":"M2K 1E6","priority":1},{"lat":"43.7563996","lng":"-79.3591398","id":7152811,"name":"JOSEPH FLOWERS","phone":"4164449871","address":"    1875 Leslie Street","country":"Canada","city":"NORTH YORK","postal":"M3B 2M5","priority":1},{"lat":"43.7036919","lng":"-79.3741978","id":7152812,"name":"DOLCE & GOURMANDO","phone":"4169158840","address":"1493 BAYVIEW AVE","state":"ON","city":"TORONTO","postal":"M4G 3A8","priority":1},{"lat":"43.736434","lng":"-79.3451367","id":7152813,"name":"MCEWAN FINE FOODS - DOLCE & GOURMANDO","phone":"4164446262","address":"38 KARL FRASER RD ","state":"ON","city":"NORTH YORK","postal":"M3C 0H7","priority":1},{"lat":"43.6701416","lng":"-79.3862339","id":7152814,"name":"MCEWAN FINE FOODS - DOLCE & GOURMANDO","phone":"4169750808","address":"1 BLOOR STREET EAST","state":"ON","city":"TORONTO","postal":"M4W 1A9","priority":1},{"lat":"43.6969706","lng":"-79.3294695","id":7152815,"name":"PULP & PAPERIE","phone":"4165516995","address":"     1042 COXWELL AVENUE","state":"ON","city":"TORONTO","postal":"M4C 3G5","priority":1},{"lat":"43.6784891","lng":"-79.3478621","id":7152816,"name":"IQ LIVING","phone":"4164662727","address":"     542 DANFORTH AVENUE","state":"ON","city":"TORONTO","postal":"M4K 1P8","priority":1},{"lat":"43.6695653","lng":"-79.3029153","id":7152817,"name":"BRIGHAM & MORE","phone":"4164828060","address":"     1946 QUEEN ST. EAST","state":"ON","city":"TORONTO","postal":"M4L 1H6","priority":1},{"lat":"43.668268","lng":"-79.3072018","id":7152818,"name":"COOK IT QUEEN","phone":"6473497267","address":"     1835 QUEEN ST EAST","state":"ON","city":"TORONTO","postal":"M4L 3Z6","priority":1},{"lat":"43.719002","lng":"-79.4005445","id":7152819,"name":"SHERIDAN NURSERIES ","phone":"4164816429","address":"     2827 YOUNGE STREET","state":"ON","city":"TORONTO","postal":"M4N 2J4","priority":1},{"lat":"43.7282898","lng":"-79.4027497","id":7152820,"name":"ORGANIZEIT!","phone":"4169176060","address":"     3219 YONGE ST, ","state":"ON","city":"TORONTO","postal":"M4N 3S1","priority":1},{"lat":"43.7102988","lng":"-79.3993172","id":7152821,"name":"BINZ","phone":"4167622469","address":"     2430 YONGE STREET","state":"ON","city":"TORONTO","postal":"M4P 2H4","priority":1},{"lat":"43.7148244","lng":"-79.3997964","id":7152822,"name":"PICTURE PERFECT GALLERY","phone":"4162234426","address":"     2615 YONGE ST","state":"ON","city":"TORONTO","postal":"M4P 2J1","priority":1},{"lat":"43.7143846","lng":"-79.4001698","id":7152823,"name":"COOKERY ","phone":" 4164820188","address":"     2588 YONGE ST.","state":"ON","city":"TORONTO","postal":"M4P 2J3","priority":1},{"lat":"43.6875675","lng":"-79.3937131","id":7152824,"name":"ST CLAIR GREETINGS","phone":"4169617164","address":"     1421 YONGE ST","state":"ON","city":"TORONTO","postal":"M4T 1Y7","priority":1},{"lat":"43.6642794","lng":"-79.3677743","id":7152825,"name":"ROYAL HOME HARDWARE","phone":"4169243921","address":"     485 PARLIAMENT ST","state":"ON","city":"TORONTO","postal":"M5A 3A3","priority":1},{"lat":"43.6506177","lng":"-79.3584082","id":7152826,"name":"BERGO DESIGNS","phone":"4168611821","address":"     28 TANK HOUSE LANE","state":"ON","city":"TORONTO","postal":"M5A 3C4","priority":1},{"lat":"43.6487067","lng":"-79.3774853","id":7152827,"name":"CASABLANCA TOBACCONIST","phone":"4169411414","address":"     63 YONGE STREET","state":"ON","city":"TORONTO","postal":"M5E 1Z1","priority":1},{"lat":"43.6708912","lng":"-79.391694","id":7152828,"name":"CANDLE EMPORIUM","phone":"4169617334","address":"3-87 YORKVILLE AVENUE","country":"Canada","state":"ON","city":"TORONTO","postal":"M5R 1C1","priority":1},{"lat":"41.9344264","lng":"-88.7564461","id":7152829,"name":"BLUE BANANA MARKET","phone":"4165946600","address":"     250 AUGUSTA AVE.","state":"ON","city":"TORONTO","postal":"M5T 2L7","priority":1},{"lat":"43.6459076","lng":"-79.3878224","id":7152830,"name":"COOK IT-WELLINGTON","phone":"6473523223","address":"     200 WELLINGTON ST WEST","address2":"     METRO CENTRE","state":"ON","city":"TORONTO","postal":"M5V 3C7","priority":1},{"lat":"43.648528","lng":"-79.3833359","id":7152831,"name":"BE URBANE by B.SLEUTH & STATESMAN ","phone":"4163637575","address":"     130 KING STREET WEST","address2":"     EXCHANGE TOWER","state":"ON","city":"TORONTO","postal":"M5X 2A2","priority":1},{"lat":"41.9691927","lng":"-87.6558099","id":7152832,"name":"TAPS ","phone":"4167850224","address":"     1020 LAWRENCE AVENUE","state":"ON","city":"TORONTO","postal":"M6A 1C8","priority":1},{"lat":"43.699534","lng":"-79.4312909","id":7152833,"name":"UPPER VILLAGE SPA","phone":"4167821539","address":"     997 EGLINTON AVE.W","state":"ON","city":"TORONTO","postal":"M6C 2E2","priority":1},{"lat":"43.6549027","lng":"-79.4212997","id":7152834,"name":"ZIGGY'S AT HOME","phone":"4165358728","address":"     794 COLLEGE STREET","state":"ON","city":"TORONTO","postal":"M6G 1C7","priority":1},{"lat":"43.6646413","lng":"-79.4139224","id":7152835,"name":"JUXTAPOSE HOME","phone":"4169019825","address":"     616 BLOOR ST. W.","state":"ON","city":"TORONTO","postal":"M6G 1K7","priority":1},{"lat":"43.661976","lng":"-79.4266263","id":7152836,"name":"UPPDOO ","phone":"6473500916","address":"     916 BLOOR STREET WEST","state":"ON","city":"TORONTO","postal":"M6H 1L1","priority":1},{"lat":"43.6655459","lng":"-79.4662218","id":7152837,"name":"LATITUDE 44","phone":"4167692900","address":"     2900 DUNDAS STREET WEST","state":"ON","city":"TORONTO","postal":"M6P 1Y8","priority":1},{"lat":"43.6482603","lng":"-79.4495383","id":7152838,"name":"COOKERY ","phone":"6474783873","address":"     303 RONCESVALLES","state":"ON","city":"TORONTO","postal":"M6R 2M6","priority":1},{"lat":"43.6507229","lng":"-79.4795067","id":7152839,"name":"COOKERY ","phone":"4166975722","address":"     2302 BLOOR STREET","state":"ON","city":"TORONTO","postal":"M6S 1P2","priority":1},{"lat":"43.6500394","lng":"-79.4819451","id":7152840,"name":"JOLANTA INTERIORS","phone":"4167629638","address":"     2368 BLOOR STREET WEST","state":"ON","city":"TORONTO","postal":"M6S 1P5","priority":1},{"lat":"43.659653","lng":"-79.513306","id":7152841,"name":"GOURMET KITCHENS","phone":"4162348637","address":"     4242 DUNDAS ST. W. ","state":"ON","city":"ETIBICOKE","postal":"M8X 1Y6","priority":1},{"lat":"43.6479871","lng":"-79.5103802","id":7152842,"name":"CIGAR STUDIO","phone":"4162379470","address":"     4 WILLINGDON BOULEVARD","state":"ON","city":"TORONTO","postal":"M8X 2H2","priority":1},{"lat":"43.6156776","lng":"-79.5176396","id":7152843,"name":"CONSIGLIO'S","phone":"4166536622","address":"     41 HORNER AVENUE ","state":"ON","city":"ETOBICOKE","postal":"M8Z 4X4","priority":1},{"lat":"43.6615135","lng":"-79.5197696","id":7152844,"name":"VANDERFLEET FLOWERS","phone":"4162340550","address":"     270 THE KINGSWAY","state":"ON","city":"ETOBICOKE","postal":"M9A 3T7","priority":1},{"lat":"43.6834879","lng":"-79.5935975","id":7152845,"name":"HEMINGWAY CIGARS FINEGIFTS","phone":"4167982427","address":"     215 CARLINGVIEW DR.","state":"ON","city":"ETOBICOKE","postal":"M9W 5X8","priority":1},{"lat":"43.7206319","lng":"-79.6000253","id":7152846,"name":"JINNY'S CHINA & GIFTS","phone":"4166745372","address":"     500 REXDALE BLVD.","state":"ON","city":"REXDALE","postal":"M9W 6K5","priority":1},{"lat":"41.5936948","lng":"-72.879886","id":7152847,"name":"COTTAGE NORTH SOAPWORKS","phone":"5195833977","address":"     359 MAIN ST.","state":"ON","city":"PORT DOVER","postal":"N0A 1N0","priority":1},{"lat":"43.4217774","lng":"-71.994693","id":7152848,"name":"WEATHERVANE","phone":"5198332596","address":"     74 MAIN ST.","state":"ON","city":"ERIN","postal":"N0B 1T0","priority":1},{"lat":"43.6178104","lng":"-80.1420515","id":7152849,"name":"RIVERS EDGE GIFT SHOP ","phone":"4165679330","address":"     160 MAIN ST. S","country":"Canada","state":"ON","city":"ROCKWOOD","postal":"N0B 2K0 ","priority":1},{"lat":"40.7026147","lng":"-73.9930781","id":7152850,"name":"XCLUSIVE ELEMENTS","phone":"5196640771","address":"     7 FRONT STREET","state":"ON","city":"ST.JACOBS","postal":"N0B 2N0","priority":1},{"lat":"44.3184436","lng":"-80.6474755","id":7152851,"name":"PEEK THRU MY WINDOW","phone":"5199864650","address":"     17 TORONTO STREET SOUTH","state":"ON","city":"MARKDALE","postal":"N0C 1H0","priority":1},{"lat":"42.5909695","lng":"-71.8025005","id":7152853,"name":"THE COOKS CUPBOARD","phone":"5194838000","address":"     169 HIGH STREET","state":"ON","city":"SOUTHAMPTON","postal":"N0H 2L0","priority":1},{"lat":"42.9132099","lng":"-81.5037266","id":7152854,"name":"MT. BRYDGES FLORAL DESIGNS","phone":"5192641141","address":"     22677 ADELAIDE RD.","state":"ON","city":"MT.BRYDGES","postal":"N0L 1W0","priority":1},{"lat":"36.10788","lng":"-80.0963081","id":7152855,"name":"XCLUSIVE ELEMENTS ","phone":"5195652610","address":"     11 MAIN STREET NORTH","state":"ON","city":"BAYFIELD","postal":"N0M 1G0","priority":1},{"lat":"40.8904315","lng":"-74.0394219","id":7152856,"name":"THE JEWELLERY BOX","phone":"5192354500","address":"     382 MAIN ST.","state":"ON","city":"EXETER","postal":"N0M 1S6","priority":1},{"lat":"43.31087110000001","lng":"-81.7518539","id":7152857,"name":"THE GARDEN GATE","phone":"519-238-1701","address":"53 B Main Street East","country":"Canada","state":"ON","city":"GRAND BEND","postal":"N0M 1T0","priority":1},{"lat":"29.7627659","lng":"-95.3607201","id":7152858,"name":"FOUR SEASONS FASHIONS & MORE","phone":"5192946617","address":"     214 MAIN STREET","state":"ON","city":"PARKHILL","postal":"N0M 2K0","priority":1},{"lat":"43.649429","lng":"-79.3784302","id":7152859,"name":"VAN VALKENBURG & SON","phone":"5197865062","address":"     4 KING STREET WEST","state":"ON","city":"FOREST","postal":"N0N 1J0","priority":1},{"lat":"42.882077","lng":"-82.147085","id":7152860,"name":"PETROLIA MERCANTILE & TEA","phone":"5198820238","address":"     4192 PETROLIA LINE","state":"ON","city":"PETROLIA","postal":"N0N1R0","priority":1},{"lat":"42.3342747","lng":"-81.9989413","id":7152861,"name":"TREASURES ON TALBOT","phone":"5193590463","address":"     57-B TALBOT ST W","state":"ON","city":"BLENHEIM","postal":"N0P 1A0","priority":1},{"lat":"38.6125375","lng":"-95.2681767","id":7152862,"name":"MITTONS JEWELLERS ","phone":"5196745554","address":"     10 MAIN EAST","state":"ON","city":"RIDGETOWN","postal":"N0P 2C0","priority":1},{"lat":"42.3879923","lng":"-82.9153829","id":7152863,"name":"THE TREASURE NOOK","phone":"5197283555","address":"     588 NOTRE DAME ST.","state":"ON","city":"BELLE RIVER","postal":"N0R 1A0","priority":1},{"lat":"43.6486434","lng":"-79.3790251","id":7152864,"name":"BLIMEY'S BRITISH SHOP","phone":"2267871244","address":"     25 KING ST. WEST","state":"ON","city":"HARROW","postal":"N0R 1G0","priority":1},{"lat":"43.7057599","lng":"-80.3781624","id":7152865,"name":"RON WILKIN JEWELLERS ","phone":"5198431225","address":"     109 ST-ANDREW ST W","country":"Canada","state":"ON","city":"FERGUS","postal":"N1M 1N6","priority":1},{"lat":"43.3584663","lng":"-80.3135407","id":7152866,"name":"THE ART OF HOME","phone":"5196219237","address":"     11 AINSLIE STREET SOUTH","state":"ON","city":"CAMBRIDGE","postal":"N1R 3J9","priority":1},{"lat":"43.4220481","lng":"-80.4947387","id":7152867,"name":"SHERIDAN NURSERIES ","phone":"5197434146","address":"     100 ELMSDALE DRIVE","state":"ON","city":"KITCHENER","postal":"N2E 1H6","priority":1},{"lat":"43.6487959","lng":"-79.3786254","id":7152868,"name":"WALPER TOBACCO SHOP ","phone":"5197459984","address":"     15 KING ST.WEST","state":"ON","city":"KITCHENER","postal":"N2G 1A1","priority":1},{"lat":"43.4547331","lng":"-80.4956073","id":7152869,"name":"RELISH COOKING STUDIO","phone":"5199548772","address":"     70 VICTORIA ST.N.","state":"ON","city":"KITCHENER","postal":"N2H 5C2","priority":1},{"lat":"43.5139376","lng":"-80.5537843","id":7152870,"name":"SHERRI'S LIVING LARGE","phone":"5192062488","address":"     826 KING ST. N.","state":"ON","city":"WATERLOO","postal":"N2J 4G8","priority":1},{"lat":"43.461165","lng":"-80.538334","id":7152871,"name":"TWEED & HICKORY ","phone":"5197461822","address":"     50 WESTMOUNT RD N.","state":"ON","city":"WATERLOO","postal":"N2L 2R5","priority":1},{"lat":"39.1112454","lng":"-84.4808808","id":7152872,"name":"COMPLIMENTS TO BISTECCA","phone":"5193963540","address":"     284 HARBOUR ST.","state":"ON","city":"KINCARDINE","postal":"N2Z 2X9","priority":1},{"lat":"43.1864308","lng":"-80.2508633","id":7152873,"name":"BRANT RUGS","phone":"5197558717","address":"     5-627 PARK ROAD N","state":"ON","city":"BRANTFORD","postal":"N3R 2N7","priority":1},{"lat":"40.5930525","lng":"-74.5144225","id":7152874,"name":"BRANTFORD HOME HARDWARE","phone":"5197513333","address":"     10 KING GEORGE ROAD","state":"ON","city":"BRANTFORD","postal":"N3R 5J7","priority":1},{"lat":"43.1713397","lng":"-80.2403125","id":7152875,"name":"HALLMARK","phone":"5197593510","address":"     84 LYNDEN RD","state":"ON","city":"BRANTFORD","postal":"N3R 6B8","priority":1},{"lat":"43.1737595","lng":"-80.2364444","id":7152876,"name":"J.H. YOUNG FINE JEWELLERS","phone":"5197522330","address":"     126 LYNDEN ROAD","state":"ON","city":"BRANTFORD","postal":"N3R 8A3","priority":1},{"lat":"43.0620244","lng":"-79.9621109","id":7152877,"name":"FACETS JEWELLERY & GIFT","phone":"9057658959","address":"     351 ARGYLE ST S","state":"ON","city":"CALEDONIA","postal":"N3W 1K7","priority":1},{"lat":"42.8470716","lng":"-80.2897422","id":7152878,"name":"I.D.A.ROULSTONS PHARMACY","phone":"5194268011","address":"     65 DONLY DRIVE NORTH","state":"ON","city":"SIMCOE","postal":"N3Y 0C2","priority":1},{"lat":"42.8221176","lng":"-80.2997564","id":7152879,"name":"PHARMASAVE ","phone":"5194266580","address":"     454 NORFOLK STREET SOUTH","state":"ON","city":"SIMCOE","postal":"N3Y 2X3","priority":1},{"lat":"42.8609336","lng":"-80.7290582","id":7152880,"name":"PEDLAR'S QUAY","phone":"5198426993","address":"     20 RIDOUT ST. W.","state":"ON","city":"TILLSONBURG","postal":"N4G 2C7","priority":1},{"lat":"40.7560385","lng":"-73.9679678","id":7152882,"name":"D.C. TAYLOR JEWELLERS","phone":"5193763476","address":"     977 2ND AVENUE EAST","state":"ON","city":"OWEN SOUND","postal":"N4K 5P1","priority":1},{"lat":"44.5732357","lng":"-80.9243596","id":7152883,"name":"D.C. TAYLOR JEWELLERS","phone":"519376862","address":"1171 16th St E","state":"ON","city":"OWEN SOUND","postal":"N4K 1Z4","priority":1},{"lat":"44.4996296","lng":"-80.2170992","id":7152884,"name":"D.C. TAYLOR JEWELLERS","phone":"7054441171","address":"120 HURONTARIO ","state":"ON","city":"COLLINGWOOD","postal":"L9Y 2L8","priority":1},{"lat":"40.6690303","lng":"-73.988107","id":7152885,"name":"TEMPTATIONS","phone":"5195061819","address":"     332 10TH STREET","state":"ON","city":"HANOVER","postal":"N4N 1P3","priority":1},{"lat":"43.6531243","lng":"-79.3952115","id":7152886,"name":"THE MAGNOLIA GALLERY","phone":"5195373827","address":"     421 DUNDAS STREET","state":"ON","city":"WOODSTOCK","postal":"N4S 1B8","priority":1},{"lat":"43.6602025","lng":"-79.3613384","id":7152887,"name":"SCHAUS DECORATING & DESIGN","phone":"5195397870","address":"     593 DUNDAS STREET","state":"ON","city":"WOODSTOCK","postal":"N4S 1C9","priority":1},{"lat":"45.1341816","lng":"-76.140616","id":7152888,"name":"KITCHEN CUPBOARD & ICEBOX","phone":"5192914777","address":"     105 ELIZABETH ST W","state":"ON","city":"LISTOWEL","postal":"N4W 1C8","priority":1},{"lat":"-37.855134","lng":"144.987443","id":7152889,"name":"KATHIE JORDAN DESIGN","phone":"5197726937","address":"     87 PEEL ST.","state":"ON","city":"NEW HAMBURG","postal":"N5A 1E7","priority":1},{"lat":"43.3712196","lng":"-80.9807851","id":7152890,"name":"BRADSHAW'S","phone":"5192716283","address":"     129 ONTARIO STREET","state":"ON","city":"STRATFORD","postal":"N5A 3H1","priority":1},{"lat":"43.2567694","lng":"-79.8664117","id":7152891,"name":"O'NEIL'S FINE JEWELLERY","phone":"5197738121","address":"     29 JOHN STREET NORTH","state":"ON","city":"AYLMER","postal":"N5H 2A7","priority":1},{"lat":"38.4435766","lng":"-122.6971576","id":7152892,"name":"JENNINGS FURNITURE","phone":"5196310410","address":"     432 TALBOT STREET","state":"ON","city":"ST-THOMAS","postal":"N5P 1B9","priority":1},{"lat":"42.7854392","lng":"-81.1653612","id":7152893,"name":"BERRY HILL ","phone":"5196310480","address":"     75 BURWELL ROAD","state":"ON","city":"ST-THOMAS","postal":"N5P 3R5","priority":1},{"lat":"40.6777869","lng":"-74.0111827","id":7152894,"name":"JILL'S TABLE","phone":"5196451335","address":"     115 KING STREET","state":"ON","city":"LONDON","postal":"N6A 1C3","priority":1},{"lat":"42.9863258","lng":"-81.250787","id":7152895,"name":"QUANTUM VERDI ","phone":"5194385944","address":"     487 RICHMOND ST.","state":"ON","city":"LONDON","postal":"N6A 3E4","priority":1},{"lat":"42.9719493","lng":"-81.252378","id":7152896,"name":"CURIOSITIES GIFT SHOP","phone":"5194320434","address":"     174 1\/2 WORTLEY RD","state":"ON","city":"LONDON","postal":"N6C 3P7","priority":1},{"lat":"42.9309649","lng":"-81.3104351","id":7152898,"name":"JORDAN POND","phone":"5196526725","address":"     3335 SETTLEMENT TRAIL","state":"ON","city":"LONDON","postal":"N6P 1W2","priority":1},{"lat":"40.731824","lng":"-74.054811","id":7152899,"name":"ALL AROUND THE HOUSE","phone":"5195244181","address":"     32 COURT HOUSE SQUARE","state":"ON","city":"GODERICH","postal":"N7A 1M4","priority":1},{"lat":"33.7746585","lng":"-118.1483599","id":7152900,"name":"RUBIES INC.","phone":"5193511119","address":"     661 GRAND AVENUE EAST","state":"ON","city":"CHATHAM","postal":"N7L 1X5","priority":1},{"lat":"42.0531062","lng":"-82.6005152","id":7152901,"name":"WHARRAM'S JEWELLERY ","phone":"5193269271","address":"     21 TALBOT ST.W.","state":"ON","city":"LEAMINGTON","postal":"N8H 1M3","priority":1},{"lat":"42.3125867","lng":"-82.8706618","id":7152903,"name":"CLASSIC IMPRESSIONS","phone":"5197392194","address":"     13300 TECUMSEH ROAD EAST","state":"ON","city":"TECUMSEH","postal":"N8N 4R8","priority":1},{"lat":"42.2760471","lng":"-82.9994159","id":7152904,"name":"FRAMING STATION @ CRESENT","phone":"5199693066","address":"     3115 MARENTETTE AVE","state":"ON","city":"WINDSOR","postal":"N8X 4G1","priority":1},{"lat":"42.3200781","lng":"-83.0336202","id":7152905,"name":"CAESARS WINDSOR","phone":"5192587878","address":"     377 RIVERSIDE DRIVE EAST","state":"ON","city":"WINDSOR","postal":"N9A 7H7","priority":1},{"lat":"42.0354982","lng":"-82.7150502","id":7152906,"name":"CINDYS HOME & GARDEN","phone":"5197339425","address":"     585 SEACLIFF DRIVE","state":"ON","city":"KINGSVILLE","postal":"N9Y 2K6","priority":1},{"lat":"40.702988","lng":"-73.9907803","id":7152907,"name":"BRUSHED","phone":"5192223505","address":"     30 MAIN STREET","state":"ON","city":"WATERFORD","postal":"NOE1Y0","priority":1},{"lat":"44.2261811","lng":"-76.4828768","id":7152908,"name":"GARDEN MARKET","phone":"7053822442","address":"     85 ONTARIO STREET","state":"ON","city":"BURKS FALLS","postal":"P0A 1C0","priority":1},{"lat":"34.1813266","lng":"-119.2256311","id":7152909,"name":"PORT SANDFIELD MARINA","phone":"7057653147","address":"     1327 PENINSULA RD","state":"ON","city":"PORT SANDFIELD","postal":"P0B 1J0","priority":1},{"lat":"40.7268082","lng":"-73.2366842","id":7152910,"name":"NOT CLYDE'S","phone":"7057446627","address":"     375 MAIN STREET","state":"ON","city":"MATTAWA","postal":"P0H 1V0","priority":1},{"lat":"49.0650259","lng":"-81.0299298","id":7152911,"name":"FLOWERS BY JENNY LYNN","phone":"7052722683","address":"     145 6E AVE","state":"ON","city":"COCHRANE","postal":"P0L 1C0","priority":1},{"lat":"44.4441307","lng":"-79.6180471","id":7152912,"name":"VEILLEUX FURNITURE(AMEUBL)","phone":"7053624604","address":"     1444 HWY 11","state":"ON","city":"HEARST","postal":"P0L 1N0","priority":1},{"lat":"40.9146033","lng":"-73.8961068","id":7152913,"name":"THE KITCHEN SHOP","phone":"7052353828","address":"     85 BRUCE AVENUE","state":"ON","city":"SOUTH PORCUPINE","postal":"P0N 1H0","priority":1},{"lat":"43.8528611","lng":"-79.4316322","id":7152914,"name":"GUARDIAN PHARM.MANITOULIN","phone":"7053775411","address":"     11 YONGE STREET ","state":"ON","city":"MINDEMOYA","postal":"P0P 1S0","priority":1},{"lat":"51.0202377","lng":"-93.8254868","id":7152915,"name":"FINISHING TOUCHES","phone":"8077273308","address":"     177 HOWEY STREET","state":"ON","city":"RED LAKE","postal":"P0V 2M0","priority":1},{"lat":"46.3322011","lng":"-79.465496","id":7152916,"name":"NORTH BAY GUARDIAN PHARM","phone":"7054725500","address":"     1950 ALGONQUIN AVE.","state":"ON","city":"NORTH BAY","postal":"P1B 4Z2","priority":1},{"lat":"43.6215817","lng":"-79.4996733","id":7152917,"name":"SHINE JEWELLERY & ACCESSOR","phone":"7056459700","address":"     15 MANITOBA STREET","state":"ON","city":"BRACEBRIDGE","postal":"P1L 1S4","priority":1},{"lat":"44.9191797","lng":"-79.3741366","id":7152918,"name":"MUSKOKA BAY CLOTHING","phone":"7056879900","address":"     165 MUSKOTA RD S.","state":"ON","city":"GRAVENHURST","postal":"P1P 1X3","priority":1},{"lat":"48.1501763","lng":"-80.0342042","id":7152919,"name":"THE JEWEL BOX","phone":"7055674151","address":"     17 GOVERNMENT ROAD WEST","state":"ON","city":"KIRKLAND LAKE","postal":"P2N 2E3","priority":1},{"lat":"46.5050286","lng":"-80.9483117","id":7152920,"name":"KITCHEN BITS","phone":"7056743743","address":"     1390 KINGSWAY","state":"ON","city":"SUDBURY","postal":"P3B 0A3","priority":1},{"lat":"35.4967254","lng":"-97.7198393","id":7152921,"name":"LEPRECHAUN(THE)","phone":"7055210578","address":"     1159 THE KINGSWAY","state":"ON","city":"SUDBURY","postal":"P3B 2E7","priority":1},{"lat":"48.4760115","lng":"-81.3317903","id":7152922,"name":"MAGICAL ENERGY","phone":"7053607775","address":"     123 ALGONQUIN BOUL. EAST","state":"ON","city":"TIMMINS","postal":"P4N 1A6","priority":1},{"lat":"49.4206627","lng":"-82.4151286","id":7152923,"name":"BLOOMING BOUQUET FLOWERS","phone":"7053354235","address":"     62 BRUNETVILLE RD ","state":"ON","city":"KAPUSKASING","postal":"P5N 2G3","priority":1},{"lat":"46.5144444","lng":"-84.2891667","id":7152924,"name":"MIO'S FURNITURE FASHIONS","phone":"7057598183","address":"     261 TRUNK ROAD","state":"ON","city":"SAULT ST.MARIE","postal":"P6A 3S7","priority":1},{"lat":"46.5110867","lng":"-84.2974465","id":7152925,"name":"HESS JEWELLERS","phone":"7059460200","address":"     150 CHURCHILL BOULEVARD","address2":"     CHURCHILL PLAZA","state":"ON","city":"SAULT SAINTE-MARIE","postal":"P6A 3Z9","priority":1},{"lat":"46.5359001","lng":"-84.4109191","id":7152926,"name":"PREMIERE LANDSCAPING & GAR","phone":"7059499614","address":"     1215 SECOND LINE WEST.","state":"ON","city":"SAULT STE MARIE","postal":"P6C 2L9","priority":1},{"lat":"41.9196569","lng":"-71.0959367","id":7152927,"name":"FINNPORT ","phone":"8073452641","address":"     290 BAY ST","state":"ON","city":"THUNDER BAY","postal":"P7B 1R8","priority":1},{"lat":"40.7275607","lng":"-74.0040071","id":7152928,"name":"KANO REID","phone":"8072232859","address":"     32 KING STREET ","state":"ON","city":"DRYDEN","postal":"P8N 1B3","priority":1},{"lat":"42.5998139","lng":"-71.3672838","id":7152929,"name":"BIJOUTERIE MORIN JEWELL","phone":"7058555223","address":"     4764-10 REG RD ","address2":"     PLACE BONAVENTURE MALL","state":"ON","city":"CHELMSFORD","postal":"POM 1L0","priority":1},{"lat":"41.4783891","lng":"-73.2167515","id":7152930,"name":"EVENSONG","phone":"2047452764","address":"     82 MAIN STREET SOUTH","state":"MB","city":"CARMAN","postal":"R0G 0J0","priority":1},{"lat":"42.135099","lng":"-71.039942","id":7152931,"name":"GUARDIAN-MOUNTAIN PARK PH.","phone":"2046362361","address":"     47 MAIN STREET","state":"MB","city":"ERICKSON","postal":"R0J 0P0","priority":1},{"lat":"50.0754978","lng":"-96.9803256","id":7152932,"name":"ELIZABETHS FLORIST & GIFT","phone":"2043344919","address":"     5607 #9 HWY","state":"MB","city":"ST.ANDREWS","postal":"R1A 2Y9","priority":1},{"lat":"52.8595119","lng":"-104.6097735","id":7152933,"name":"MIL JEANNE FLOWERS & AXENZ","phone":"2048576886","address":"     106 SASKATCHEWAN AVE. E","state":"MB","city":"PORTAGE","postal":"R1N 0L1","priority":1},{"lat":"49.8982753","lng":"-97.0591759","id":7152934,"name":"HALLMARK #104 KILDONAN","phone":"2046618730","address":"     T61 - 1555 REGENT AVENUE","state":"MB","city":"WINNIPEG","postal":"R2C 4J2","priority":1},{"lat":"49.856835","lng":"-97.0469707","id":7152935,"name":"VACUUM DEPOT\/WINN-WEST DIS","phone":"2042565208","address":"     6-1329 NIAKWA RD E","state":"MB","city":"WINNIPEG","postal":"R2J 3T4","priority":1},{"lat":"42.2477159","lng":"-71.8261214","id":7152936,"name":"ANIMAL HOSPITAL OF MANITOB","phone":"2045863334","address":"     995 MAIN STREET","state":"MB","city":"WINNIPEG","postal":"R2W 3P8","priority":1},{"lat":"49.9084317","lng":"-97.1715231","id":7152937,"name":"LUXE FURNITURE COMPANY","phone":"2047792900","address":"     120 MCPHILLIPS STREET","state":"MB","city":"WINNIPEG","postal":"R3E 2J7","priority":1},{"lat":"37.7702828","lng":"-122.3987567","id":7152938,"name":"D.A.NIELS GOUR.KITCHENWARE","phone":"2049532345","address":"     485 BERRY ST.","state":"MB","city":"WINNIPEG","postal":"R3J 1N6","priority":1},{"lat":"49.8775065","lng":"-97.1449551","id":7152939,"name":"HAPPY COOKER","phone":"2044532665","address":"     464 STRADBROOK AVE","state":"MB","city":"WINNIPEG","postal":"R3L 0J9","priority":1},{"lat":"41.6967637","lng":"-88.1437973","id":7152940,"name":"BLUE HILLS DESIGN","phone":"2044871151","address":"     165 LILAC ST.","state":"MB","city":"WINNIPEG","postal":"R3M 2S1","priority":1},{"lat":"41.8370684","lng":"-71.4449409","id":7152941,"name":"SALT BOUTIQUE","phone":"2045042544","address":"     444 ACADEMY RD","state":"MB","city":"WINNIPEG","postal":"R3N 0C4","priority":1},{"lat":"49.8621665","lng":"-97.3816322","id":7152942,"name":"SHELMERDINE GARDEN CENTER","phone":"2048957203","address":"     7800 ROBLIN BLVD.","state":"MB","city":"HEADINGLEY","postal":"R4H 1B6","priority":1},{"lat":"41.2466595","lng":"-75.8637667","id":7152943,"name":"NORTHWOODS GALLERY & GIFTS","phone":"8072749224","address":"     273 SCOTT STREET","state":"ON","city":"FORT FRANCES","postal":"R9A 1G8","priority":1},{"lat":"37.7332414","lng":"-122.4294775","id":7152944,"name":"JENN'S PERFECT PRESENTS","phone":"3065542422","address":"     303 BOSWORTH STREET","state":"SK","city":"WYNYARD","postal":"S0A 4T0","priority":1},{"lat":"42.2619854","lng":"-71.8025507","id":7152945,"name":"BIRDS OF PARADISE","phone":"3067525858","address":"     507 MAIN ST. ","state":"SK","city":"MELFORT","postal":"S0E 1A0","priority":1},{"lat":"42.7832387","lng":"-85.6663366","id":7152946,"name":"ELEMENTS","phone":"3068734299","address":"     119 100TH ST. ","state":"SK","city":"TISDALE","postal":"S0E 1T0","priority":1},{"lat":"40.7370754","lng":"-74.0762069","id":7152947,"name":"BETH GRAINGER'S FLORIST","phone":"3063324309","address":"     181 BROADWAY AVE WEST","state":"SK","city":"FORT QU'APPELLE","postal":"S0G 1S0","priority":1},{"lat":"40.5908626","lng":"-73.9621619","id":7152948,"name":"CRTRENZ","phone":"3066973511","address":"     717 DESMOND STREET","state":"SK","city":"GRENFELL","postal":"S0G 2B0","priority":1},{"lat":"41.5355382","lng":"-75.5440172","id":7152949,"name":"BLOOMIN ATTIC","phone":"3062284334","address":"     213 MAIN ST.","state":"SK","city":"UNITY","postal":"S0K 4L0","priority":1},{"lat":"41.0794527","lng":"-73.8581937","id":7152950,"name":"SHERRING GOLD","phone":"3067824653","address":"     91 BROADWAY STREET EAST","state":"SK","city":"YORKTON","postal":"S3N 0L1","priority":1},{"lat":"38.8907979","lng":"-77.0018207","id":7152951,"name":"YORK JEWELLERS","phone":"3068425484","address":"     39-3RD STREET N.E.","state":"SK","city":"WEYBURN","postal":"S4H 0W1","priority":1},{"lat":"40.8743591","lng":"-72.4003684","id":7152952,"name":"EASTSIDE PHARMACY ","phone":"3062051472","address":"     80 GREAT PLAINS ROAD","state":"SK","city":"EMERALD PARK","postal":"S4L 1C3","priority":1},{"lat":"41.6436577","lng":"-83.5784324","id":7152953,"name":"BASKET CASES","phone":"3063523916","address":"     1433 HAMILTON STREET","state":"SK","city":"REGINA","postal":"S4R 7V4","priority":1},{"lat":"41.6390056","lng":"-83.6241759","id":7152954,"name":"KITCHENGEAR","phone":"3063597773","address":"     3418 HILL AVE","state":"SK","city":"REGINA","postal":"S4S 0W9","priority":1},{"lat":"30.3310267","lng":"-81.6562521","id":7152955,"name":"JILLIAN'S DESIGN ELEMENTS","phone":"3066930673","address":"     621 MAIN STREET NORTH","state":"SK","city":"MOOSE JAW","postal":"S6H 0W6","priority":1},{"lat":"27.4993146","lng":"-82.5487226","id":7152956,"name":"LEON'S FURNITURE","phone":"3069228000","address":"     102-15TH STREET EAST","state":"SK","city":"PRINCE ALBERT","postal":"S6V 1G2","priority":1},{"lat":"27.961142","lng":"-82.4245531","id":7152957,"name":"THE UNIFORM CHOICE","phone":"3066510388","address":"     3110 8TH ST.EAST","state":"SK","city":"SASKATOON","postal":"S7H 0W2","priority":1},{"lat":"33.4988958","lng":"-86.8279292","id":7152958,"name":"BATEMAN JEWELLERS","phone":"3062448277","address":"     234 2ND AVENUE SOUTH","state":"SK","city":"SASKATOON","postal":"S7K 1K9","priority":1},{"lat":"52.7603863","lng":"-108.2739641","id":7152959,"name":"ZEKE'S","phone":"3064456868","address":"     11422 RAILWAY AVE.E","state":"SK","city":"NORTH BATTLEFORD","postal":"S9A 3G8","priority":1},{"lat":"53.282335","lng":"-110.0031489","id":7152960,"name":"OLIVE & BIRCH DESIGNS ","phone":"3068252478","address":"     4813-49 AVENUE","state":"SK","city":"LLOYDMINSTER","postal":"S9V 0T5","priority":1},{"lat":"40.6854509","lng":"-73.8410014","id":7152961,"name":"CASCADE FLOWER & ART ","phone":"7806234995","address":"     10114 101 AVE","state":"AB","city":"LAC LABICHE","postal":"T0A 2C0","priority":1},{"lat":"41.2072641","lng":"-95.9912517","id":7152962,"name":"RUSTY DAISY","phone":"7803742107","address":"     5038-50TH STREET","state":"AB","city":"DAYSLAND","postal":"T0B 1A0","priority":1},{"lat":"53.4863214","lng":"-113.4183668","id":7152963,"name":"HARDISTY COMMUNITY DRUG MART","phone":"7808883786","address":"     5032 50ST ","state":"AB","city":"HARDISTY","postal":"T0B 1V0","priority":1},{"lat":"27.4546033","lng":"-82.6135206","id":7152964,"name":"TRENDY PETALS","phone":"5873569379","address":"     5122-50TH AVE ","state":"AB","city":"LAMONT","postal":"T0B 2R0","priority":1},{"lat":"52.323194","lng":"-112.7055131","id":7152965,"name":"GRATE KITCHEN SHOPPE ","phone":"4037428484","address":"     4806, 50TH STREET","state":"AB","city":"STETTLER","postal":"T0C 2L0","priority":1},{"lat":"52.9596982","lng":"-113.9996743","id":7152966,"name":"BACKSTREET GIFTS & ANTIQUES","phone":"7805860733","address":"     RR2 HIGHWAY 13","state":"AB","city":"WESTEROSE","postal":"T0C 2V0","priority":1},{"lat":"52.8759741","lng":"-118.0804858","id":7152967,"name":"BEARFOOT IN THE PARK","phone":"7808522221","address":"     606 CONNAUGHT DR.","state":"AB","city":"JASPER","postal":"T0E 1E0","priority":1},{"lat":"40.6853131","lng":"-73.8325675","id":7152968,"name":"JEWELLERY BOX & GIFT","phone":"7808355161","address":"     10314 110 STREET","state":"AB","city":"FAIRVIEW","postal":"T0H 1L0","priority":1},{"lat":"47.6987056","lng":"-122.2078751","id":7152969,"name":"I.D.A.HIGH LEVEL VALU","phone":"7809263516","address":"     10204 100TH AVE. ","state":"AB","city":"HIGH LEVEL","postal":"T0H 4J0","priority":1},{"lat":"33.1882509","lng":"-87.53272","id":7152970,"name":"Rustic Chic Flowers - Patti","phone":"4038232792","address":"40 3RD AVE. E","country":"Canada","state":"AB","city":"DRUMHELLER","postal":"T0J 0Y0","priority":1},{"lat":"41.6832691","lng":"-88.3531885","id":7152971,"name":"OYEN FLOWERS & GIFTWARE","phone":"4036643827","address":"     113 MAIN STREET","state":"AB","city":"OYEN","postal":"T0J 2J0","priority":1},{"lat":"49.571573","lng":"-114.3594995","id":7152972,"name":"CROCKETS TRADING COMPANY","phone":"4035644389","address":"     2701 226 ST.","state":"AB","city":"BELLEVUE","postal":"T0K 0C0","priority":1},{"lat":"46.8571361","lng":"-96.8998147","id":7152973,"name":"THREE HILLS HOME HARDWARE","phone":"4034435060","address":"110 17 AVE E","state":"AB","city":"THREE HILLS","postal":"T0M 2A0","priority":1},{"lat":"50.0186881","lng":"-110.6599065","id":7152974,"name":"KITCHEN-KA-BOODLE","phone":"4035040102","address":"     101-1601 DUNMORE RD SE","state":"AB","city":"MEDICINE HAT","postal":"T1A 1Z8","priority":1},{"lat":"40.7842271","lng":"-73.9474168","id":7152975,"name":"BLONDIE'S GIFT AND GARDEN","phone":"4035040040","address":"     1855, 2ND AVENUE","state":"AB","city":"DUNMORE","postal":"T1B 0K3","priority":1},{"lat":"46.808559","lng":"-96.8747326","id":7152976,"name":"JOHNSONS TABER DRUG","phone":"4032232233","address":"     5204-48 AVENUE","state":"AB","city":"TABER","postal":"T1G 1S1","priority":1},{"lat":"49.676863","lng":"-112.800852","id":7152977,"name":"DECOR OUT THE DOOR","phone":"5872200960","address":"     1509 MAYOR MAGRATH DR S","state":"AB","city":"LETHBRIDGE","postal":"T1K 2R4","priority":1},{"lat":"40.8024309","lng":"-73.9535731","id":7152978,"name":"HIDDEN SECRETS","phone":"4039346737","address":"104 3 AVE, STRATHMORE ","state":"AB","city":"STRATHMORE","postal":"T1P 1P1","priority":1},{"lat":"44.9845826","lng":"-93.2693574","id":7152979,"name":"COUNTRY CUPBOARD G&T","phone":"4035012808","address":"     120-2ND STREET WEST","state":"AB","city":"BROOKS","postal":"T1R 0E9","priority":1},{"lat":"50.725431","lng":"-113.9788533","id":7152980,"name":"OKOTOKS COUNTRY FLORIST","phone":"4039386675","address":"#9- 49 Elizabeth Street.","city":"OKOTOKS","postal":"T1S 1B4","priority":1},{"lat":"51.0501596","lng":"-114.0001562","id":7152981,"name":"MYRIC ELECTRONICS","phone":"4032990333","address":"     416 MERIDIAN RD S.E ","state":"AB","city":"CALGARY","postal":"T2A 1X2","priority":1},{"lat":"51.0416242","lng":"-114.0356012","id":7152982,"name":"ARTESANO GALLERIA ","phone":"4032668092","address":"     1215 B-9 AVE SE","state":"AB","city":"CALGARY","postal":"T2G 0S9","priority":1},{"lat":"51.0115886","lng":"-114.0506031","id":7152984,"name":"VALERIANNE OF CALGARY","phone":"4032454453","address":"     4640 MANHATTAN ROAD SE ","state":"AB","city":"CALGARY","postal":"T2G 3P9","priority":1},{"lat":"50.9944717","lng":"-114.0633415","id":7152985,"name":"CRICKLEWOOD INTERIORS","phone":"4032580050","address":"     6626 CENTRE ST. SOUTH","state":"AB","city":"CALGARY","postal":"T2H 0C6","priority":1},{"lat":"51.0490096","lng":"-114.0599134","id":7152986,"name":"HOME TREASURES & MORE ","phone":"5874712036","address":"     284-10816 MACLEOD TRAIL S","state":"AB","city":"CALGARY","postal":"T2J 5N8","priority":1},{"lat":"50.9455348","lng":"-114.0697298","id":7152987,"name":"CHEAP SMOKES CIGARS","phone":"4034752437","address":"     12100 MACLEOD TRAIL S.E.","state":"AB","city":"CALGARY","postal":"T2J 7G9","priority":1},{"lat":"51.0671675","lng":"-114.0993675","id":7152988,"name":"HOLISTIC VETERINARY CLINIC","phone":"4032891616","address":"     105-1640 16TH AVE N.W.","state":"AB","city":"CALGARY","postal":"T2M 0L6","priority":1},{"lat":"51.0523927","lng":"-114.0907946","id":7152989,"name":"METRO ELEMENTS","phone":"4032577588","address":"     1221 KENSINGTON RD NW","state":"AB","city":"CALGARY","postal":"T2N 3P8","priority":1},{"lat":"51.0528437","lng":"-114.1085717","id":7152990,"name":"SBE WHOLESALE FLOWERS","phone":"4032771828","address":"     6-2104 KENSINGTON ROAD NW","state":"AB","city":"CALGARY","postal":"T2N 3R7","priority":1},{"lat":"47.5645872","lng":"-122.3948128","id":7152991,"name":"BRITANNIA ORNAMENTAL","phone":"4032434444","address":"     816 - 49TH AVENUE S.W.","state":"AB","city":"CALGARY","postal":"T2S 1G8","priority":1},{"lat":"51.0227183","lng":"-114.1140031","id":7152992,"name":"URBAN DOG MARKET ","phone":"4032423621","address":"     3538 GARRISON GATE SW","state":"AB","city":"CALGARY","postal":"T2T 6N1","priority":1},{"lat":"50.9506461","lng":"-114.0021315","id":7152993,"name":"THE VACUUM DISTRICT","phone":"4034544822","address":"     303-11566 24 ST. S.E","state":"AB","city":"CALGARY","postal":"T2Z 3J3","priority":1},{"lat":"51.1054019","lng":"-114.161671","id":7152994,"name":"ZEST KITCHENWARE","phone":"4032865220","address":"     5005 DALHOUSIE DRIVE N.W.","state":"AB","city":"CALGARY","postal":"T3A 5R8","priority":1},{"lat":"40.7716075","lng":"-73.9904632","id":7152995,"name":"CHINTZ & COMPANY","phone":"4032453449","address":"     1238 11TH AVENUE SW","state":"AB","city":"CALGARY","postal":"T3C 0M4","priority":1},{"lat":"51.0173153","lng":"-114.1622465","id":7152996,"name":"CHEAP SMOKES & CIGARS","phone":"4035402555","address":"     #220-5255 RICHMOND RD SW","state":"AB","city":"CALGARY","postal":"T3E 7C4","priority":1},{"lat":"51.0401024","lng":"-114.208137","id":7152997,"name":"KALA & LIME INC.","phone":"5873525252","address":"     339 ASPEN GLEN LANDING","state":"AB","city":"CALGARY","postal":"T3H 0N6","priority":1},{"lat":"51.1651348","lng":"-114.0713718","id":7152998,"name":"J&J HAIR SALON","phone":"5873512688","address":"     24 PANNATELLA BLVD N.W.","state":"AB","city":"CALGARY","postal":"T3K 6K7","priority":1},{"lat":"51.1547649","lng":"-113.9998333","id":7152999,"name":"YYC SMOKES & CIGARS","phone":"4034607588","address":"     2550 COUNTRY HILL BL NE","state":"AB","city":"CALGARY","postal":"T3N 1E4","priority":1},{"lat":"51.2912093","lng":"-114.0140043","id":7153000,"name":"MELROSE DRUGS","phone":"4039480010","address":"     101 - 209 CENTRE AV SW","state":"AB","city":"AIRDRIE","postal":"T4B 3L8","priority":1},{"lat":"44.9859427","lng":"-93.2695148","id":7153001,"name":"KITCHEN BOUTIQUE  ","phone":"4039321175","address":"     212 1ST STREET W.","state":"AB","city":"COCHRANE","postal":"T4C 1A5","priority":1},{"lat":"39.4392651","lng":"-80.1428584","id":7153002,"name":"PARKLAND NURSERY & GARDEN CENTRE","phone":"4033465613","address":"     26554 HWY 11","state":"AB","city":"RED DEER COUNTY","postal":"T4E 0T2","priority":1},{"lat":"45.0465132","lng":"-93.3442126","id":7153003,"name":"FLOWERS FOR YOU","phone":"4037838190","address":"     5008 51 AVE","state":"AB","city":"PONOKA","postal":"T4J 1R6","priority":1},{"lat":"52.4896975","lng":"-113.7344179","id":7153004,"name":"ABC CHRISTIAN STORE","phone":"4037824416","address":"     1-5230 COLLEGE AVE","state":"AB","city":"LACOMBE","postal":"T4L 2G1","priority":1},{"lat":"52.2591876","lng":"-113.7955414","id":7153005,"name":"I.D.A. SPROULES MOUNTVIEW","phone":"4033472345","address":"     3757-43 AVE.","state":"AB","city":"RED DEER","postal":"T4N 3B7","priority":1},{"lat":"52.268975","lng":"-113.8115599","id":7153006,"name":"HORSE IN HANO RANCH LTD","phone":"7807206996","address":"4331 GERDTS AVEÿÿÿÿÿÿÿÿÿ","state":"AB","city":"RED DEER           ","postal":"T4S 2B3","priority":1},{"lat":"52.305376","lng":"-114.077139","id":7153007,"name":"PEPPERTREE & COMPANY","phone":"4038878847","address":"     120 HEWLETT PARK LANDING","state":"AB","city":"SYLVAN LAKE","postal":"T4S 2J3","priority":1},{"lat":"42.0481745","lng":"-80.1815126","id":7153008,"name":"CHERUBS","phone":"4038456672","address":"     5203- 50 STREET","state":"AB","city":"ROCKY-MOUNTAIN-HOUSE","postal":"T4T 1A6","priority":1},{"lat":"41.2121065","lng":"-95.9904025","id":7153009,"name":"INTERIORS ON MAIN ","phone":"7806723622","address":"     4965 50 STREET","state":"AB","city":"CAMROSE","postal":"T4V 1P9","priority":1},{"lat":"38.950083","lng":"-76.9295303","id":7153010,"name":"BEAU VILLA FLOWERS & GIFTS","phone":"7809242424","address":"     5007 - 52 AVE","state":"AB","city":"BEAUMONT","postal":"T4X 1E5","priority":1},{"lat":"53.5582877","lng":"-113.5035318","id":7153011,"name":"HEALTHCARE & REHAB CENTRE","phone":"7804246094","address":"     10611 KINGSWAY AVE. ","address2":"     KINGSWAY PROF. CENTER","state":"AB","city":"EDMONTON","postal":"T5G 3C8","priority":1},{"lat":"53.5459457","lng":"-113.5013707","id":7153012,"name":"NOTTINGHAM CIGARS","phone":"7809054079","address":"     10390-105 STREET NW","state":"AB","city":"EDMONTON","postal":"T5J 1E6","priority":1},{"lat":"53.543156","lng":"-113.537288","id":7153013,"name":"SHOP HARROW","phone":"7808170983","address":"     101 77-125 STREET NW ","country":"Canada","state":"AB","city":"EDMONTON","postal":"T5N 1S7","priority":1},{"lat":"53.5341713","lng":"-113.566738","id":7153014,"name":"BELLA CASA DESIGN CENTRE","phone":"7804374190","address":"     9646 - 142 ST","state":"AB","city":"EDMONTON","postal":"T5N 4B2","priority":1},{"lat":"53.5091388","lng":"-113.6745663","id":7153015,"name":"NOTTINGHAM CIGARS ","phone":"7804835523","address":"     2496-GUARDIAN RD NW","state":"AB","city":"EDMONTON","postal":"T5T 1K8","priority":1},{"lat":"53.5021281","lng":"-113.6287418","id":7153016,"name":"CALLINGWOOD FLOWERS","phone":"7804812361","address":"     430-6655 178ST","state":"AB","city":"EDMONTON","postal":"T5T 4J5","priority":1},{"lat":"53.5224397","lng":"-113.6218712","id":7153017,"name":"SHOP HARROW","phone":"7804440155","address":"     #2530, 8882 - 170 ST.","address2":"     WEST EDMONTON MALL","country":"Canada","state":"AB","city":"EDMONTON","postal":"T5T 4M2","priority":1},{"lat":"53.5699784","lng":"-113.4188887","id":7153018,"name":"THE MEDICINE SHOPPE ","phone":"7804486048","address":"     5011-118TH AVE. N.W.","state":"AB","city":"EDMONTON","postal":"T5W 1B8","priority":1},{"lat":"53.6296361","lng":"-113.36085","id":7153019,"name":"KUHLMANN'S GREENHOUSE, GARDEN, MARKET","phone":"7804763384","address":"     1320 - 167 AVE NW","state":"AB","city":"EDMONTON","postal":"T5Y 6L6","priority":1},{"lat":"39.8481217","lng":"-105.1155943","id":7153020,"name":"THE WISH LIST","phone":"7804368277","address":"     10464 82ND AVE","state":"AB","city":"EDMONTON","postal":"T6E 2A2","priority":1},{"lat":"53.4534938","lng":"-113.5096487","id":7153021,"name":"HERITAGE CIGARS AND VAPES","phone":"7807611272","address":"     105-10903 23 AVE N.W.","state":"AB","city":"EDMONTON","postal":"T6J 1X3","priority":1},{"lat":"53.4398212","lng":"-113.6199931","id":7153022,"name":"FOREVER YOUNG","phone":"7807587727","address":"     5564-5540 BLV WINDERMERE","state":"AB","city":"EDMONTON","postal":"T6W 2Z8","priority":1},{"lat":"39.7700601","lng":"-74.8689194","id":7153024,"name":"HUE DECOR LTD","phone":"7804655699","address":"     2328 ELLWOOD DR.","state":"AB","city":"EDMONTON","postal":"T6X 0A9","priority":1},{"lat":"53.2234798","lng":"-114.9772049","id":7153025,"name":"JULIE'S WINDOWS KITCHENS BED AND BATH ","phone":"7806210045","address":"     5132-50 STREET","state":"AB","city":"DRAYTON VALLEY","postal":"T7A 1R5","priority":1},{"lat":"29.7621489","lng":"-95.3612231","id":7153026,"name":"THYMES TWO INC.","phone":"7807233350","address":"     306 MAIN ST. ","state":"AB","city":"EDSON","postal":"T7E 1V1","priority":1},{"lat":"49.1846601","lng":"-122.8968452","id":7153027,"name":"THE FLOWER SHOPPE WESTLOCK","phone":"7803073703","address":"     10623A 100 AVE","state":"AB","city":"WESTLOCK","postal":"T7P 2J4","priority":1},{"lat":"33.9712648","lng":"-117.5547225","id":7153028,"name":"URBAN SMOKE SHOP","phone":"7807790097","address":"     3815 CAXTON ST BAY ","state":"AB","city":"WHITECOURT","postal":"T7S 1R2","priority":1},{"lat":"40.7269642","lng":"-73.986114","id":7153030,"name":"GIFTS AND GADGETS","phone":"7809625220","address":"     111 FIRST AVE","state":"AB","city":"SPRUCE GROVE","postal":"T7X 2H4","priority":1},{"lat":"53.5327663","lng":"-113.9896303","id":7153031,"name":"SHELLY'S FINDS","phone":"7809685078","address":"     117-3919 49TH AVENUE","state":"AB","city":"STONY PLAIN","postal":"T7Z 2J7","priority":1},{"lat":"53.5390203","lng":"-113.981007","id":7153032,"name":"CHEAP SMOKES & CIGARS","phone":"7802665828","address":"     4300 SOUTH PARK DRIVE","state":"AB","city":"STONY PLAIN","postal":"T7Z 2W7","priority":1},{"lat":"53.5725257","lng":"-113.2734652","id":7153033,"name":"GREENLAND GARDEN CENTRE","phone":"7804677557","address":"     23108-HIGHWAY 16 EAST","state":"AB","city":"SHERWOOD PARK","postal":"T8A 4V2","priority":1},{"lat":"37.3757718","lng":"-118.3840306","id":7153034,"name":"NOTTINGHAM CIGARS","phone":"7805705424","address":"     664 WYE ROAD ","state":"AB","city":"SHERWOOD PARK","postal":"T8A 6G3","priority":1},{"lat":"53.633406","lng":"-113.623964","id":7153035,"name":"MODERN EYES GALA & GIFT ","phone":"7804599102","address":"     103, 5 PERRON STREET","state":"AB","city":"ST.ALBERT","postal":"T8N 1E3","priority":1},{"lat":"53.6458276","lng":"-113.6241016","id":7153036,"name":"AK'S SPEC TOBA & VAPE SHOP","phone":"5875853399","address":"     42-11 BELLEROSE DRIVE","state":"AB","city":"ST ALBERT","postal":"T8N 5C9","priority":1},{"lat":"39.9004207","lng":"-104.8719826","id":7153037,"name":"BACKYARDZ'N BILLIARDZ INC.","phone":"7804027722","address":"     9923 112 AVE.","state":"AB","city":"GRANDE PRAIRIE","postal":"T8V 1V5","priority":1},{"lat":"49.1449112","lng":"-122.9207504","id":7153038,"name":"CEDAR GEMS TOBACCONIST","phone":"7804022739","address":"     10712 78 AVE ","state":"AB","city":"GRANDE PRAIRIE","postal":"T8W 0G9","priority":1},{"lat":"45.4861245","lng":"-122.611137","id":7153039,"name":"CHEAP SMOKES & CIGARS ","phone":"7808197796","address":"     5104 50 AVE","state":"AB","city":"LEDUC","postal":"T9E 6V4","priority":1},{"lat":"32.7634944","lng":"-117.0870619","id":7153040,"name":"BLACK GOLD GALERIE & FRAME ","phone":"7809866393","address":"     4724 - 50 AVE","state":"AB","city":"LEDUC","postal":"T9E 6Y6","priority":1},{"lat":"56.7561489","lng":"-111.4619302","id":7153041,"name":"CHOCOLATES & CANDLELIGHT","phone":"7807433878","address":"     BAY 4-122 MILLENIUM DRIVE","state":"AB","city":"FORT MCMURRAY","postal":"T9K 2S8","priority":1},{"lat":"40.7427872","lng":"-73.953762","id":7153042,"name":"FORBES PHARMACY","phone":"7805943579","address":"     101-5016 50TH AVE","state":"AB","city":"COLD LAKE","postal":"T9M 0L1","priority":1},{"lat":"54.720102","lng":"-113.285446","id":7153043,"name":"BOVEN'S JEWELLERY & GIFTWARE","phone":"7806752101","address":"     4910A- 50TH STREET","state":"AB","city":"ATHABASCA","postal":"T9S 1E3","priority":1},{"lat":"26.7222606","lng":"-80.0507636","id":7153044,"name":"VOILA","phone":"7808423037","address":"     224-10TH ST","state":"AB","city":"WAINWRIGHT","postal":"T9W 1P7","priority":1},{"lat":"50.3367902","lng":"-115.8556669","id":7153045,"name":"PURPLE COW GIFT SHOP","phone":"2503456133","address":"     4992 FAIRMONT FRONTAGE RD","state":"BC","city":"FAIRMONT HOT SPRINGS","postal":"V0B 1L1","priority":1},{"lat":"40.7965696","lng":"-81.375795","id":7153046,"name":"THISTLE POT GIFTS","phone":"2504421214","address":"     337 MARKET AVENUE","state":"BC","city":"GRAND FORKS","postal":"V0H 1H0","priority":1},{"lat":"42.232575","lng":"-77.1957152","id":7153047,"name":"HOME HARDWARE","phone":"2504956534","address":"     8501 MAIN STREET","state":"BC","city":"OSOYOOS","postal":"V0H 1V0","priority":1},{"lat":"34.0187052","lng":"-118.3206495","id":7153048,"name":"HEARTSTRINGS HOME DECOR","phone":"2508777778","address":"     3761 3RD AVE","state":"BC","city":"SMITHERS","postal":"V0J 2N0","priority":1},{"lat":"50.119394","lng":"-122.956028","id":7153049,"name":"WHISTLER KITCHEN WORKS","phone":"6049381110","address":"     116-4350 LORIMER RD","state":"BC","city":"WHISTLER","postal":"V0N 1B4","priority":1},{"lat":"49.4722164","lng":"-123.7573584","id":7153050,"name":"LES FLEURS DE FI","phone":"6048855685","address":"     5685 COWRIE ST.","state":"BC","city":"SECHELT","postal":"V0N 3A0","priority":1},{"lat":"48.6511295","lng":"-123.5585201","id":7153051,"name":"THIRD ADDITION GIFTS","phone":"2507434221","address":"     345 - 2720 MILL BAY RD","state":"BC","city":"MILL BAY","postal":"V0R 2P1","priority":1},{"lat":"50.298452","lng":"-119.2533472","id":7153052,"name":"NICHOLAS ALEX. HOME & GARDEN","phone":"2505428881","address":"     6325 HWY 97","state":"BC","city":"VERNON","postal":"V1B 3R4","priority":1},{"lat":"49.5324115","lng":"-115.7480144","id":7153053,"name":"HOME HARDWARE","phone":"2504266288","address":"     1901 MCPHEE ROAD","address2":"     QUAD CITY BLDG MATERIALS","state":"BC","city":"CRANBROOK","postal":"V1C 7J2","priority":1},{"lat":"32.7596153","lng":"-96.9627086","id":7153054,"name":"NICOS NURSERYLAND","phone":"2508042004","address":"     830-28TH ST. NE","state":"BC","city":"SALMON ARM","postal":"V1E 2S7","priority":1},{"lat":"49.1768622","lng":"-122.7188256","id":7153055,"name":"BRAUNS FLOORING & HOME DECOR","phone":"2507871842","address":"     10020 96 AVE","state":"BC","city":"FORT ST.JOHN","postal":"V1J 1L3","priority":1},{"lat":"36.9690322","lng":"-122.0073104","id":7153056,"name":"KOOTENAI MOON FURNITURE","phone":"2503525530","address":"     115 HALL STREET","state":"BC","city":"NELSON","postal":"V1L 7B4","priority":1},{"lat":"49.1635351","lng":"-122.6384603","id":7153057,"name":"PHARMASAVE ","phone":"6048885602","address":"     8850 WALNUT GROVE DRIVE","state":"BC","city":"LANGLEY","postal":"V1M 2C9","priority":1},{"lat":"49.1701533","lng":"-122.5782592","id":7153058,"name":"TREASURE LANDING","phone":"6048817040","address":"     9233 GLOVER RD","state":"BC","city":"FORT LANGLEY","postal":"V1M 4E1","priority":1},{"lat":"49.3056035","lng":"-117.6594025","id":7153059,"name":"DRAGONFLIES & FAIRY DUST","phone":"2503046999","address":"     15-1502 COLUMBIA AVE","state":"BC","city":"CASTLEGAR","postal":"V1N 4G5","priority":1},{"lat":"49.0952228","lng":"-117.7083171","id":7153060,"name":"THE DOORWAY","phone":"2503641142","address":"     1386 CEDAR AVENUE","state":"BC","city":"TRAIL","postal":"V1R 4C2","priority":1},{"lat":"40.7665805","lng":"-73.9202808","id":7153061,"name":"GOOD GRACIOUS CONTEMPORARY","phone":"2505452952","address":"     3209, 30TH AVENUE","state":"BC","city":"VERNON","postal":"V1T 2C6","priority":1},{"lat":"32.4827873","lng":"-85.0552096","id":7153062,"name":"TOP KNOT EVENTS","phone":"2503088175","address":"     2304 45 AVENUE","state":"BC","city":"VERNON","postal":"V1T 3M8","priority":1},{"lat":"49.8173093","lng":"-119.4957209","id":7153063,"name":"UNHINGED BOUTIQUE ","phone":"2507642900","address":"     #9-4600 LAKESHORE ROAD","state":"BC","city":"KELOWNA","postal":"V1W 1X4","priority":1},{"lat":"49.8597864","lng":"-119.4901752","id":7153064,"name":"PHARMASAVE ","phone":"2507175330","address":"     3155 LAKESHORE RD.","address2":"     MISSION PARK SHOPPING CTR","state":"BC","city":"KELOWNA","postal":"V1W 3S9","priority":1},{"lat":"31.2087047","lng":"-83.2232667","id":7153065,"name":"TREEHOUSE INTERIORS","phone":"2508602338","address":"     1901 WINDSOR RD","state":"BC","city":"KELOWNA","postal":"V1Y 4R6","priority":1},{"lat":"27.4014047","lng":"-82.5656398","id":7153066,"name":"MODERN ACCENTS","phone":"2507632111","address":"     642 BERNARD AVE.","state":"BC","city":"KELOWNA","postal":"V1Y 6P3","priority":1},{"lat":"49.502056","lng":"-119.5918716","id":7153067,"name":"AGNES STAVANOVICH DESIGN","phone":"2507700039","address":"     101-135 FRONT ST","address2":"     LANYON HOME","state":"BC","city":"PENTICTON","postal":"V2A 1H3","priority":1},{"lat":"33.6523005","lng":"-117.9141742","id":7153068,"name":"CASTLES & COTTAGES","phone":"2503746704","address":"     347 VICTORIA ST.","state":"BC","city":"KAMLOOPS","postal":"V2C 2A3","priority":1},{"lat":"52.1284794","lng":"-122.1434174","id":7153069,"name":"MULBERRY LANE GIFT STUDIO","phone":"2503921996","address":"     24B SOUTH 2ND AVENUE","state":"BC","city":"WILLIAMS LAKE","postal":"V2G 1H6","priority":1},{"lat":"52.9794284","lng":"-122.4966331","id":7153070,"name":"MAMA C'S GIFTS 'N' GIGGLES","phone":"2509838824","address":"     424B REID STREET","state":"BC","city":"QUESNEL","postal":"V2J 2M6","priority":1},{"lat":"40.6526835","lng":"-74.0062303","id":7153071,"name":"LES BEAUX VISAGES","phone":"2505633788","address":"     1284 4TH AVENUE","state":"BC","city":"PRINCE GEORGE","postal":"V2L 3J4","priority":1},{"lat":"53.9011058","lng":"-122.7896303","id":7153072,"name":"THE YELLOW DOOR DECOR","phone":"2505649808","address":"     3658 OPIE CRESCENT","state":"BC","city":"PRINCE GEORGE","postal":"V2N 1C1","priority":1},{"lat":"34.2122956","lng":"-118.2347116","id":7153073,"name":"HUNT AND HOME DECOR LTD","phone":"7782403555","address":"     2540 MONTROSE AVE","state":"BC","city":"ABBOTSFORD","postal":"V2S 3T3","priority":1},{"lat":"49.2191138","lng":"-122.6526465","id":7153074,"name":"TRIPLE TREE NURSERYLAND","phone":"6044650287","address":"     20503 LOUGHEED HWY","state":"BC","city":"MAPLE RIDGE","postal":"V2X 2P9","priority":1},{"lat":"49.2175433","lng":"-122.5922924","id":7153075,"name":"FAVORITE FINDS","phone":"6044760881","address":"     260 22709 LOUGHEED HGWY","state":"BC","city":"MAPLE RIDGE","postal":"V2X 2V5","priority":1},{"lat":"49.2196144","lng":"-122.6014158","id":7153076,"name":"LOTUS & LEMONGRASS ","phone":"6044778787","address":"     #103-11952-224 ST","state":"BC","city":"MAPLE RIDGE","postal":"V2X 6B3","priority":1},{"lat":"49.103962","lng":"-122.6543833","id":7153077,"name":"THIS IS IT! GIFTS","phone":"6045390237","address":"     20494 FRASER HIGHWAY","state":"BC","city":"LANGLEY","postal":"V3A 4G2","priority":1},{"lat":"49.2781077","lng":"-122.8057716","id":7153078,"name":"KORNA NATURAL PET SUPPLIES","phone":"6049042008","address":"     2773 BARNET HIGHWAY","state":"BC","city":"PORT COQUITLAM","postal":"V3B 1C2","priority":1},{"lat":"49.2845509","lng":"-122.7390253","id":7153079,"name":"LAYERED HOME & LIVING","phone":"6047892056","address":"     4045 AYLING ST","state":"BC","city":"PORT COQUITLAM","postal":"V3B 5W3","priority":1},{"lat":"49.2617809","lng":"-122.7816417","id":7153080,"name":"SOPHIES GOLD","phone":"6049419119","address":"     2550 SHAUGHNESSY ST. ","state":"BC","city":"PORT COQUITLAM","postal":"V3C 3G2","priority":1},{"lat":"26.3046909","lng":"-80.143879","id":7153081,"name":"WISH ON A STAR","phone":"6044692777","address":"     268 NEWPORT DR","state":"BC","city":"PORT MOODY","postal":"V3H 5B9","priority":1},{"lat":"49.1061253","lng":"-122.7351291","id":7153082,"name":"LA BELLE VIE","phone":"7785712442","address":"     5709 176TH STREET","state":"BC","city":"CLOVERDALE","postal":"V3S 4C9","priority":1},{"lat":"49.127814","lng":"-122.8444433","id":7153083,"name":"GRECO'S SPECIALTY FOODS","phone":"6045901644","address":"     6886 KING GEORGE HWY","state":"BC","city":"SURREY","postal":"V3W 4Z9","priority":1},{"lat":"49.0468084","lng":"-122.7755334","id":7153084,"name":"KITCHEN THERAPY","phone":"6045366005","address":"     2443 161A STREET","state":"BC","city":"SURREY","postal":"V3Z 0M6","priority":1},{"lat":"49.0811926","lng":"-122.8213847","id":7153085,"name":"ART KNAPP PLANTLAND","phone":"6045969201","address":"     4391 KING GEORGE BLVD","state":"BC","city":"SURREY","postal":"V3Z 1G6","priority":1},{"lat":"49.0327616","lng":"-122.8026294","id":7153086,"name":"GS & COMPANY","phone":"6045318203","address":"     107-1711 152ND STREET","country":"Canada","state":"BC","city":"SURREY","postal":"V4A 4N3","priority":1},{"lat":"49.0925859","lng":"-123.0868406","id":7153087,"name":"HERITAGE HOUSE INTERIORS","phone":"6049462455","address":"     4924 CHISHOLM STREET","state":"BC","city":"DELTA","postal":"V4K 3X2","priority":1},{"lat":"49.0267306","lng":"-123.0703918","id":7153088,"name":"MA MAISON + CO.","phone":"6049489315","address":"     1315-56 STREET","state":"BC","city":"SOUTH DELTA","postal":"V4L 2A6","priority":1},{"lat":"42.6038474","lng":"-71.224143","id":7153089,"name":"J.K. SCHMIDT JEWELLERS","phone":"2507687353","address":"     2477-C MAIN STREET","state":"BC","city":"WESTBANK","postal":"V4T 1K5","priority":1},{"lat":"49.262101","lng":"-122.973609","id":7153090,"name":"CANADA GARDEN WORKS ","phone":"6042990621","address":"     6250 LOUGHEED HWY","state":"BC","city":"BURNABY","postal":"V5B 2Z9","priority":1},{"lat":"49.2065766","lng":"-122.9982372","id":7153091,"name":"CANADA GARDEN WORKS","phone":"6044344111","address":"     4746 S.E MARINE DRIVE","state":"BC","city":"BURNABY","postal":"V5J 3G6","priority":1},{"lat":"49.2811358","lng":"-123.0761545","id":7153092,"name":"THE GOURMET WAREHOUSE","phone":"6042533022","address":"     1340 EAST HASTINGS ST.","state":"BC","city":"VANCOUVER","postal":"V5L 1S3","priority":1},{"lat":"49.2700175","lng":"-123.1068227","id":7153093,"name":"KONA'S BARBER SHOP","phone":"7024273370","address":"     1711 MANITOBA ST","state":"BC","city":"VANCOUVER","postal":"V5Y 3K8","priority":1},{"lat":"41.6112832","lng":"-71.2429897","id":7153094,"name":"CIGAR CONNOISSEURS","phone":"6046824427","address":"     346 WATER STREET","state":"BC","city":"VANCOUVER","postal":"V6B 1B6","priority":1},{"lat":"49.2760502","lng":"-123.1201035","id":7153095,"name":"REVOLUCION","phone":"6046624427","address":"     1063 MAINLAND STREET","state":"BC","city":"VANCOUVER","postal":"V6B 5P9","priority":1},{"lat":"49.2893637","lng":"-123.1317577","id":7153096,"name":"CHOCOLAT MOUSSE KITCHENWARE","phone":"6046828223","address":"     1553 ROBSON STREET","state":"BC","city":"VANCOUVER","postal":"V6G 1C3","priority":1},{"lat":"32.0849724","lng":"-96.478466","id":7153097,"name":"ATKINSON'S","phone":"6047363378","address":"     1501 WEST 6TH AVENUE","state":"BC","city":"VANCOUVER","postal":"V6J 1R1","priority":1},{"lat":"39.7730585","lng":"-105.0122466","id":7153098,"name":"ADONIA KERRISDALE","phone":"6042610049","address":"     2057 W. 41ST AVE","state":"BC","city":"VANCOUVER","postal":"V6M 1Y7","priority":1},{"lat":"49.264156","lng":"-123.1805259","id":7153099,"name":"IT'S STILL A DOG'S LIFE","phone":"6047393647","address":"     3428 W. BROADWAY","state":"BC","city":"VANCOUVER","postal":"V6R 2B3","priority":1},{"lat":"39.7808512","lng":"-86.2363599","id":7153100,"name":"MORRICOTTA","phone":"6042247196","address":"     4429 WEST 10TH AVENUE","state":"BC","city":"VANCOUVER","postal":"V6R 2H8","priority":1},{"lat":"49.1841117","lng":"-123.1335429","id":7153101,"name":"THOMSON & FENN TRADING ","phone":"6042881002","address":"     4151 HAZELBRIDGE WAY","state":"BC","city":"RICHMOND","postal":"V6X 4J7","priority":1},{"lat":"49.1253843","lng":"-123.1823623","id":7153102,"name":"A MONKEY TREE","phone":"6044489234","address":"     3851 MONCTON ST","state":"BC","city":"RICHMOND","postal":"V7E 3A7","priority":1},{"lat":"49.3346913","lng":"-123.0398294","id":7153103,"name":"HOUSE OF KEYS","phone":"6049807503","address":"     1199 LYNN VALLEY ROAD","state":"BC","city":"NORTH VANCOUVER","postal":"V7J 3H2","priority":1},{"lat":"41.8698364","lng":"-71.3983252","id":7153104,"name":"MO'S GENERAL STORE","phone":"6049287827","address":"     51 LONSDALE AVE","state":"BC","city":"NORT VANCOUVER","postal":"V7M 2E5","priority":1},{"lat":"49.3464247","lng":"-123.0767882","id":7153105,"name":"EPANOUI GIFTS","phone":"7788813343","address":"     4053 NORWOOD AVE","state":"BC","city":"NORTH VANCOUVER","postal":"V7N 3R4","priority":1},{"lat":"49.3374705","lng":"-123.1015975","id":7153106,"name":"GIFTWORKS","phone":"6049864863","address":"     3080 EDGEMONT BLVD","state":"BC","city":"NORTH VANCOUVER","postal":"V7R 2N4","priority":1},{"lat":"49.3254812","lng":"-123.1375839","id":7153107,"name":"HERZOG CRYSTAL","phone":"6049227122","address":"     902 PARK ROYAL SOUTH","state":"BC","city":"WEST VANCOUVER","postal":"V7T 1A1","priority":1},{"lat":"33.505339","lng":"-86.844909","id":7153108,"name":"COOK'S JEWELLERS","phone":"2506245231","address":"     527 3RD AVENUE WEST","state":"BC","city":"PRINCE RUPERT","postal":"V8J 1L9","priority":1},{"lat":"48.6491255","lng":"-123.3946214","id":7153109,"name":"PROVENANCE FINE THINGS","phone":"2506565676","address":"     2536 BEACON AVE.","state":"BC","city":"SIDNEY","postal":"V8L 1Y2","priority":1},{"lat":"48.648765","lng":"-123.3947272","id":7153110,"name":"THE DANCING ORCHID","phone":"2506581032","address":"     #104-2537 BEACON AVENUE","state":"BC","city":"SIDNEY","postal":"V8L 1Y3","priority":1},{"lat":"48.4266164","lng":"-123.3273501","id":7153111,"name":"BESPOKE DESIGN ","phone":"2502981105","address":"     1844 OAK BAY AVENUE","state":"BC","city":"VICTORIA","postal":"V8R 1C5","priority":1},{"lat":"48.4266236","lng":"-123.3164346","id":7153112,"name":"NICHOLAS RANDALL ","phone":"2505921789","address":"     2180 OAKBAY AVE","state":"BC","city":"VICTORIA","postal":"V8R 1G3","priority":1},{"lat":"48.4298162","lng":"-123.3698618","id":7153113,"name":"CHINTZ & COMPANY","phone":"2503880996","address":"     1720 STORE STREET","state":"BC","city":"VICTORIA","postal":"V8W 1V5","priority":1},{"lat":"48.4283861","lng":"-123.3692766","id":7153114,"name":"GOODFELLAS CIGAR SHOP ","phone":"2503852772","address":"     1441 STORE STREET","state":"BC","city":"VICTORIA","postal":"V8W 3J6","priority":1},{"lat":"48.4976616","lng":"-123.3799759","id":7153115,"name":"PHARMASAVE 232","phone":"2507273505","address":"     310-777 ROYAL OAK DRIVE","state":"BC","city":"VICTORIA","postal":"V8X 4V1","priority":1},{"lat":"40.7477257","lng":"-73.9706707","id":7153116,"name":"BLACK DOOR DECOR","phone":"2502452248","address":"     740 1ST AVENUE","state":"BC","city":"LADYSMITH","postal":"V9G 1B3","priority":1},{"lat":"39.671233","lng":"-84.036031","id":7153117,"name":"QUALITY FOODS:A ","phone":"2502484004","address":"     705 MEMORIAL AVENUE","state":"BC","city":"QUALICUM BEACH","postal":"V9K 1T3","priority":1},{"lat":"41.2669808","lng":"-72.878073","id":7153118,"name":"KHAYA ECLECTIC DECOR & GIFTS","phone":"2507466640","address":"     107 KENNETH STREET","state":"BC","city":"DUNCAN","postal":"V9L 1N5","priority":1},{"lat":"49.6882321","lng":"-124.9447705","id":7153119,"name":"PHARMASAVE","phone":"2503394563","address":"     7- 2225 GUTHRIE RD","address2":"     ASPENGROVE CENTRE","state":"BC","city":"COMOX","postal":"V9M 4G1","priority":1},{"lat":"38.6004634","lng":"-78.7967371","id":7153120,"name":"GRAHAM'S JEWELLERS ","phone":"2503389511","address":"     261-5TH STREET","state":"BC","city":"COURTENAY","postal":"V9N 1J5","priority":1},{"lat":"43.6556194","lng":"-70.2527774","id":7153121,"name":"FLYING FISH - NANAIMO","phone":"2507542104","address":"     180 COMMERCIAL STREET","state":"BC","city":"NANAIMO","postal":"V9R 5G6","priority":1},{"lat":"48.4558603","lng":"-123.440776","id":7153122,"name":"MANHATTAN HOME & GIFT","phone":"2502441571","address":"     72-6631 ISLAND HWY N.","state":"BC","city":"NANAIMO","postal":"V9T 4T7","priority":1},{"lat":"49.9699796","lng":"-125.215323","id":7153123,"name":"APPLESEED COTTAGE","phone":"2509237736","address":"     2266 S.ISLAND HWY","state":"BC","city":"CAMPBELL RIVER","postal":"V9W 1C3","priority":1},{"lat":"50.0261209","lng":"-125.2445781","id":7153124,"name":"GOURMET ESSENTIALS","phone":"2502869794","address":"     1044 SHOPPERS ROW","state":"BC","city":"CAMPBELL RIVER","postal":"V9W 2C6","priority":1},{"lat":"40.8197676","lng":"-73.9127743","id":7153125,"name":"FLANDANGLES KITCHEN& GIFTS","phone":"2507245851","address":"     3036 3RD AVENUE","state":"BC","city":"PORT ALBERNI","postal":"V9Y 2A5","priority":1},{"lat":"40.7373282","lng":"-73.9197704","id":7153126,"name":"QUALITY FURNITURE","phone":"8678732004","address":"     4610 50TH AVE","state":"NT","city":"YELLOWKNIFE","postal":"X1A 2N2","priority":1},{"lat":"41.7590702","lng":"-88.4440036","id":7153127,"name":"COFFEE, TEA & SPICE","phone":"8676672858","address":"     205A MAIN STREET","state":"YT","city":"WHITEHORSE","postal":"Y1A 2B2","priority":1},{"lat":"45.4286777","lng":"-75.7131133","id":7217049,"name":"5 10 15 VARIÉTÉS  ","phone":"8199851364","address":"315 RUE VICTORIA ","country":"Canada","state":"QC","city":"THURSO ","postal":"J0X 3B0 ","priority":1},{"lat":"45.312594","lng":"-75.0865475","id":7233508,"name":"CASSELMAN FLORIST & GIFTS ","phone":" 6137645504  ","address":"711 PRINCIPALE  ","country":"Canada","state":"ON","city":"CASSELMAN  ","postal":"K0A 1M0 ","priority":1},{"lat":"55.758082","lng":"-120.230051","id":7247375,"name":"B & T                  ","phone":"2507829105","address":"1008 103RD AVENUE      ","country":"Canada","state":"BC","city":"DAWSON CREEK","postal":"V1G 2G5 ","priority":1},{"lat":"43.9112167","lng":"-80.8680258","id":7437650,"name":"WENDT'S JEWELLERY LTD             ","phone":" 5193675357  ","address":"102 ELORA STREET                 ","country":"Canada","state":"ON","city":"MILDMAY      ","postal":"N0G 2J0              ","priority":1},{"lat":"53.5039666","lng":"-113.2945137","id":7437651,"name":"SALISBURY GREENHOUSES     ","phone":"7804675743","address":"52337 RANGE ROAD 232      ","country":"Canada","state":"AB","city":"SHERWOOD PARK","postal":"T8B 1B7 ","priority":1},{"lat":"51.037291","lng":"-114.024841","id":7485542,"name":"SMOKY LAKE ESSO        ","phone":"7806561250","address":"5504-04 AVE ","country":"Canada","state":"AB","postal":"T0A 3C0 ","priority":1},{"lat":"43.4834622","lng":"-79.7212723","id":7575358,"name":"OAKVILLE PAINT & DECOR CENTRE  ","phone":"289-725-2200","address":"216 Oak Walk Drive","country":"Canada","state":"ON","city":"OAKVILLE","postal":"L6H 0H4","priority":1},{"lat":"43.6687698","lng":"-79.3923923","id":7835486,"name":"WILLIAM ASHLEY STORE","phone":"4169642900","address":"131 Bloor Street West ","country":"Canada","state":"ON","city":"TORONTO","postal":"M5S 3L7","priority":1},{"lat":"34.436427","lng":"-83.106979","id":8134169,"name":"RE: FRESH","phone":"9029569758  ","address":"211 MAIN STREET ","country":"Canada","state":"NS","city":"TATAMAGOUCHE ","postal":"BOK 1V0 ","priority":1},{"lat":"44.6431546","lng":"-63.5689192","id":8134170,"name":"URBN-ISH                  ","phone":"5069993230   ","address":"1475 LOWER WATER ST. #20  ","country":"Canada","state":"NS","city":"HALIFAX","postal":"B3J 3Z2 ","priority":1},{"lat":"47.8411421","lng":"-69.5373759","id":8134232,"name":"GESTION MALILOU INC. ","phone":"8198452723","address":"27 RUE ST-GEORGES    ","country":"Canada","state":"QC","city":"WINDSOR","postal":"J1S 1J2 ","priority":1},{"lat":"46.7095002","lng":"-71.2898442","id":8134411,"name":"JEAN COUTU        ","phone":"4188365051   ","address":"1855 ROUTE DES RIVIERES #205","country":"Canada","state":"QC","city":"LEVIS","postal":"G7A 4X8     ","priority":1},{"lat":"45.6572754","lng":"-60.871044","id":8134412,"name":"TIMELESS FLORAL & FINDS ","phone":"9025352377           ","address":"10055 GRENVILLE ST.     ","country":"Canada","state":"NS","city":"ST-PETER'S  ","postal":"B0E 3B0    ","priority":1},{"lat":"45.0691912","lng":"-64.467056","id":8134413,"name":"ANATOLIA HOME & FASHION","phone":"9026811499            ","address":"8881 COMMERCIAL STREET ","country":"Canada","state":"NS","city":"NEW MINAS  ","postal":"B4N 3C4 ","priority":1},{"lat":"42.8856244","lng":"-81.0884278","id":8134914,"name":"CAMERON'S JEWELLERY LTD  ","phone":"9028631283                 ","address":"239 MAIN STREET          ","country":"Canada","state":"NS","city":"ANTIGONISH  ","postal":"B2G 2C1 ","priority":1},{"lat":"49.2837411","lng":"-123.1045006","id":8135247,"name":"AHEAD OF HAIR             ","phone":"9024858588              ","address":"1 WATER STREET            ","country":"Canada","state":"NS","city":"PIETOU   ","postal":"B0K 1H0 ","priority":1},{"lat":"42.1754227","lng":"-82.8226743","id":8135317,"name":"Blimeys British Store & Gift Shop ","phone":" 2267871244 ","address":"71 TALBOT ST NORTH ","country":"Canada","state":"ON","city":"ESSEX","postal":"N8M 1A1","priority":1},{"lat":"43.6267","lng":"-79.5400151","id":8135318,"name":" RAINSFORD COMPANY","phone":"6476696397 ","address":"24 NEWBRIDGE ROAD ","country":"Canada","state":"ON","city":"ETOBICOKE  ","postal":"M8Z 2L7 ","priority":1},{"lat":"44.4977549","lng":"-80.215785","id":8239987,"name":"THE OLDE STANTON STORE      ","phone":" 7054356898 ","address":"207 HURONTARIO ST. #6 ","country":"Canada","state":"ON","city":"COLLINGWOOD","postal":"L9Y 2M1                               ","priority":1},{"lat":"43.6785388","lng":"-79.3904229","id":8797282,"name":"PUTTI FINE FURNISHINGS ","phone":"4169727652  ","address":"1104 YONGE STREET ","country":"Canada","state":"ON","city":"TORONTO","postal":"M4W 2L6 ","priority":1},{"lat":"45.9953826","lng":"-66.8299309","id":8803510,"name":"KESWICK PHARMACY     ","phone":"5063632286                  ","address":"10 YERXA LANE        ","country":"Canada","state":"NB","city":"KESWICK","postal":"E6L 0A1","priority":1},{"lat":"45.4286777","lng":"-75.7131133","id":8804689,"name":"LA P'TITE MAISON JAUNE","phone":"5063533500              ","address":"824 RUE VICTORIA      ","country":"Canada","state":"NB","city":"EDMUNDSTON","postal":"E3V 3S9","priority":1},{"lat":"42.9714948","lng":"-81.2621863","id":8884164,"name":"BARACOA TOBACCONIST","phone":"5196792447 ","address":"173 WHARNCLIFFE RD. S. ","country":"Canada","state":"ON","city":"LONDON","postal":" N6J 2K7 ","priority":1},{"lat":"45.56114","lng":"-73.7465021","id":8900110,"name":"CLOUD NINE PAJAMAS (EDMONTON INTERN. AIRPORT)","phone":"5876950034","address":"1 OUTLET COLL. WAY #421","country":"Canada","state":"AB","city":"LEDUC","postal":"T9E 1J5","priority":1},{"lat":"53.4355081","lng":"-113.6023234","id":8900111,"name":"CLOUD NINE PAJAMAS","phone":"7804826713","address":"5168 WINDERMERE BLVD","country":"Canada","state":"AB","city":"EDMONTON","postal":"T6W 0L9","priority":1},{"lat":"45.4756531","lng":"-75.6972849","id":8987089,"name":" BOUTIQUE GALERIA         ","phone":"6133694348           ","address":"1100 BOUL. MALONEY OUEST ","country":"Canada","state":"QC","city":"GATINEAU","postal":"J8T 6G3           ","priority":1},{"lat":"48.1018121","lng":"-66.117576","id":8987090,"name":" FAMILIPRIX EXTRA D. DORION","phone":"4183643352            ","address":"674 BOULEVARD PERRON      ","country":"Canada","state":"QC","city":"CARLETON-SUR-MER","postal":"G0C 1J0 ","priority":1},{"lat":"45.6691692","lng":"-73.5770421","id":9002767,"name":"FLEURISTE ST-FRANCOIS  ","phone":"4506651515           ","address":"600 MONTEE DU MOULIN     ","country":"Canada","state":"QC","city":"LAVAL","postal":"H7A 1Z6","priority":1},{"lat":"45.8586155","lng":"-72.5794133","id":9002846,"name":"S. SETLAKWE          ","phone":"8193955464      ","address":"190 BOUL. INDUSTRIEL ","country":"Canada","state":"QC","city":"ST-GERMAIN","postal":"J0C 1K0","priority":1},{"lat":"43.8522347","lng":"-79.5185837","id":9196343,"name":"ROSE & FLAIR LIFESTYLE   ","phone":"4168172443           ","address":"1 ANGEL VIEW CRT         ","country":"Canada","state":"ON","city":"MAPLE","postal":"L6A 1G5 ","priority":1},{"lat":"44.1768346","lng":"-81.6348888","id":9354040,"name":"HARBOUR ROSE BOUTIQUE ","phone":"5193966861 ","address":"787 QUEEN STREET ","country":"Canada","state":"ON","city":"KINCARDINE ","postal":"N2Z 2Y2 ","priority":1},{"lat":"42.9731215","lng":"-82.40778739999999","id":9363024,"name":"HARBOUR BAY CLOTHING & GIFTS ","phone":" 5193444442 ","address":"186 FRONT ST. N. ","country":"Canada","state":"ON","city":"SARNIA","postal":" N7T 5S3","priority":1},{"lat":"52.7603863","lng":"-108.2739641","id":9409663,"name":"Adora Diamonds","phone":"3064456868           ","address":"11422 Railway Ave E","country":"Canada","state":"SK","city":"North Battleford","postal":"S9A 3P7","priority":1},{"lat":"52.02716100000001","lng":"-113.9477201","id":9433877,"name":"TOBACCONIST LA HAVANA    ","phone":"5874849005                ","address":"4911-50 STREET UNIT #105 ","country":"Canada","state":"AB","city":"INNISFAIL","postal":"T4G 1S8 ","priority":1},{"lat":"45.56114","lng":"-73.7465021","id":9686830,"name":"BECK ANTIQUES & JEWEL","phone":"7802297777","address":"8882 170 ST. SUITE 2980  ","address2":"WEST EDMONTON MALL     ","country":"Canada","state":"AB","city":"EDMONTON  ","postal":"T5T 4M2 ","priority":1},{"lat":"45.56114","lng":"-73.7465021","id":9686831,"name":"BECK ANTIQUES & JEWEL","phone":"7807058505       ","address":"7315 50TH ST. NW          ","country":"Canada","state":"AB","city":"EDMONTON  ","postal":"T6B 2J9 ","priority":1},{"lat":"53.7601329","lng":"-112.7858629","id":9702573,"name":"TRENDY PETALS           ","phone":"5873569379      ","address":"5122-50TH AVE ","country":"Canada","state":"AB","city":"LAMONT","postal":"T0B 2R0 ","priority":1},{"lat":"45.56114","lng":"-73.7465021","id":9752801,"name":"IGA LAMOUREUX          ","phone":"4504918228   ","address":"3765 CHEMIN OKA   ","country":"Canada","state":"QC","city":"ST-JOSEPH DU LAC","postal":"J0N 1M0 ","priority":1},{"lat":"45.56114","lng":"-73.7465021","id":9752804,"name":"TWISTED GOODS CENTRE MALL","phone":"3063743221","address":"3310 8TH STREET E. #220","country":"Canada","state":"AB","city":"SASKATOON","postal":"S7H 5M3 ","priority":1},{"lat":"45.56114","lng":"-73.7465021","id":9752805,"name":"TWISTED GOODS LAWSON MALL ","phone":"3066516952","address":"134 PRIMROSE DRIVE","country":"Canada","state":"AB","city":"SASKATOON","postal":"S7K 5S6 ","priority":1},{"lat":"45.56114","lng":"-73.7465021","id":9752807,"name":"TWISTED GOODS MIDTOWN MALL","phone":"3069522636","address":"201-1ST AVE. S UNIT #10","country":"Canada","state":"AB","city":"SASKATOON","postal":"S7K1J9","priority":1},{"lat":"45.56114","lng":"-73.7465021","id":9752809,"name":"TWISTED GOODS SOUTHGATE MA","phone":"7807588770","address":"5015-111TH ST.NW. #320","country":"Canada","state":"AB","city":"EDMONTON","postal":"T6H 4M6","priority":1},{"lat":"45.56114","lng":"-73.7465021","id":9752823,"name":"TWISTED GOODS MARKET MALL ","phone":"4032476691           ","address":"3625 SHAGANAPPI TRAIL NW  ","country":"Canada","state":"AB","city":"CALGARY","postal":"T3A 0E2 ","priority":1},{"lat":"45.56114","lng":"-73.7465021","id":9752824,"name":"TWISTED GOODS S.CENTRE MA","phone":"4034526086","address":"100 ANDERSON ROAD SE #176","country":"Canada","state":"AB","city":"CALGARY","postal":"T2J 3V1 ","priority":1},{"lat":"45.56114","lng":"-73.7465021","id":9752825,"name":"TWISTED GOODS KINGSWAY MALL","phone":"7802443338           ","address":"1 KINGSWAY G.MALL NW #774 ","country":"Canada","state":"AB","city":"EDMONTON","postal":"T5G 3A6 ","priority":1},{"lat":"45.56114","lng":"-73.7465021","id":9752827,"name":"TWISTED GOODS CORNWALL CENTRE","phone":"30675710347           ","address":"2102 11TH AVE UNIT #205  ","country":"Canada","state":"SK","city":"REGINA","postal":"S4P 3Y6 ","priority":1},{"lat":"45.56114","lng":"-73.7465021","id":9752849,"name":"Leduc Beck Antiques & Jewellery","phone":"7802293359        ","address":"103, 6527 SPARROW DRIVE   ","country":"Canada","state":"AB","city":"LEDUC","postal":"T9E 7C7 ","priority":1},{"lat":"45.56114","lng":"-73.7465021","id":9752850,"name":" ATELIER ON JOHN ","phone":"9057187166 ","address":" 46 JOHN STREET ","country":"Canada","state":"ON","city":"PORT HOPE","postal":"L1A 2Z2 ","priority":1},{"lat":"45.56114","lng":"-73.7465021","id":9752853,"name":" ACCESSORIZE IT ","phone":"5197283555 ","address":"588 NOTRE DAME ST.","country":"Canada","state":"ON","city":"BELLE RIVER","postal":"N0R 1A0 ","priority":1},{"lat":"45.56114","lng":"-73.7465021","id":9752854,"name":"DISTRI ST-HUBERT ","phone":"4383896615                ","address":"8100 BOUL. COUSINEAU   ","country":"Canada","state":"QC","city":"ST-HUBERT","postal":"J3Z 0G8 ","priority":1},{"lat":"45.56114","lng":"-73.7465021","id":9753782,"name":"SBO DISTRIBUTORS ","phone":"4168163005      ","address":"103 LONSDALE AVE","country":"Canada","state":"BC","city":"NORTH VANCOUVER  ","postal":"V7M 2E7  ","priority":1},{"lat":"45.56114","lng":"-73.7465021","id":9835015,"name":"OLIVIA RHAIN HOME INC.   ","phone":"2507640993           ","address":"5215 COBBLE CRESCENT     ","country":"Canada","state":"BC","city":"KELOWNA","postal":"V1W 4Y8 ","priority":1},{"lat":"45.56114","lng":"-73.7465021","id":9939961,"name":"Cooks Cupboard","phone":"5194838000","address":"169 High St","country":"Canada","state":"ON","city":"SOUTHAMPTON ","postal":"N0H 2L0","priority":1},{"lat":"45.56114","lng":"-73.7465021","id":9944824,"name":" I.D.A. ROULSTONS PHARMACY  ","phone":"5194268011             ","address":"65 DONLY DRIVE NORTH            ","country":"Canada","state":"ON","city":"SIMCOE","postal":"N3Y 0C2 ","priority":1},{"lat":"45.56114","lng":"-73.7465021","id":9944825,"name":"I.D.A. ROULSTONS PHARMACY    ","phone":"5195832100           ","address":"414 MAIN STREET              ","country":"Canada","state":"ON","city":"PORT DOVER","postal":"N0A 1N0 ","priority":1},{"lat":"45.56114","lng":"-73.7465021","id":9944826,"name":"RON WILKIN JEWELLERS","phone":"2263841225","address":"48 WEST MILL STREET","country":"Canada","state":"ON","city":"ELORA","postal":"N0B 1S0","priority":1},{"lat":"45.56114","lng":"-73.7465021","id":10014509,"name":"CHEF'S EDGE KITCHEN SUPPLY","phone":"2508682425        ","address":"2445 HWY 97N             ","country":"Canada","state":"BC","city":"KELOWNA    ","postal":"V1X 4J2 ","priority":1},{"lat":"45.56114","lng":"-73.7465021","id":10016603,"name":"CONSCIOUS BODEGA      ","phone":"7789900016           ","address":"33 WATER ST. #504     ","country":"Canada","state":"BC","city":"VANCOUVER  ","postal":"V6B 1R4 ","priority":1},{"lat":"45.56114","lng":"-73.7465021","id":10065369,"name":"BUROPRO CITATION         ","phone":"8194787878                     ","address":"765 BOUL. RENE-LEVESQUE  ","country":"Canada","state":"QC","city":"DRUMMONDVILLE ","postal":"J2C 0G1 ","priority":1},{"lat":"45.56114","lng":"-73.7465021","id":10065370,"name":"BMR La Coop Chambord","phone":"4183426495       ","address":"1945 Rte 169","country":"Canada","state":"QC","city":"CHAMBORD","postal":"G0W 1G0","priority":1},{"lat":"45.56114","lng":"-73.7465021","id":10292081,"name":"COOKS CUPBOARD","phone":"5193767729","address":"183 Goderich St","country":"Canada","state":"ON","city":"Port Elgin","postal":"N0H 2C1","priority":1},{"lat":"45.56114","lng":"-73.7465021","id":10295257,"name":"WALPER TOBACCO SHOP","address":"603 KING STREET EAST","country":"Canada","state":"ON","city":"KITCHENER","postal":"N2G 2M2","priority":1},{"lat":"45.56114","lng":"-73.7465021","id":10428725,"name":"DECO FOUCO","phone":"6136328527","address":"668 MAIN STREET EAST","country":"Canada","state":"ON","city":"HAWKESBURY","postal":"K6A 1A9","priority":1},{"lat":"45.56114","lng":"-73.7465021","id":10429431,"name":"FORKS TRADING COMPANY","phone":"2049491785","address":"204-1 FORKS MARKET RD","country":"Canada","state":"MB","city":"WINNIPEG","postal":"R3C 4L8","priority":1},{"lat":"45.56114","lng":"-73.7465021","id":10429432,"name":"ATELIER KAFEIN","phone":"8198435123","address":"1700 RUE SHERBROOKE","country":"Canada","state":"QC","city":"MAGOG","priority":1},{"lat":"53.619254","lng":"-113.48986","id":11005614,"name":"DERMCARE INST.CANADA LTD","phone":"780.756.2273","email":"contact@dermcareinstitute.ca","address":"202-15823 97 ST NW","country":"Canada","state":"AB","city":"EDMONTON","postal":"T5X 0C7","priority":1},{"lat":"45.51627209999999","lng":"-65.8261416","id":11005615,"name":"HAMPTON GUARDIAN","phone":"(506) 832-2401","address":"361 WILLIAM BELL DRIVE 5","country":"Canada","state":"NB","city":"HAMPTON","postal":"E5N 6B4","priority":1},{"lat":"49.2702325","lng":"-100.9914374","id":11005616,"name":"BLOSSOM BOUTIQUE","phone":"204.522.8293","email":"blossomboutique@wcgwave.ca","address":"124 MAIN STREET","country":"Canada","state":"MB","city":"MELITA","postal":"R0M 1L0","priority":1},{"lat":"45.04050290000001","lng":"-79.3093087","id":11005617,"name":"MIMOSA LIFESTYLE BOUTIQUE","phone":"7056400443","address":"16 MANITOBA STREET","country":"Canada","state":"ON","city":"BRACEBRIDGE","postal":"P1L 1S1","priority":1},{"lat":"43.6710563","lng":"-79.2960004","id":11005621,"name":"PIPPINS TEA COMPANY","phone":"416-694-7772","email":"info@pippinstea.com","address":"2098 QUEEN STREET EAST","country":"Canada","state":"ON","city":"TORONTO","postal":"M4E 1E1","priority":1},{"lat":"46.0446991","lng":"-73.1166283","id":11005624,"name":"BOLA DESIGN (Décor à coeur)","phone":"(450) 855-3756","email":"annick@boladesignboutique.com","address":"44 Rue du Roi","country":"Canada","state":"QC","city":"Sorel-Tracy","postal":"J3P 4M7","priority":1},{"lat":"54.5164087","lng":"-128.588458","id":11005625,"name":"FIORI DESIGN","phone":"250.638.1800","email":"fioridesign@hotmail.com","address":"4619 LAKELSE AVE","country":"Canada","state":"BC","city":"TERRACE","postal":"V8G 1P9 BC","priority":1},{"lat":"43.6629162","lng":"-79.3322991","id":11005628,"name":"Cookery (Leslieville)","phone":"416-778-4050","email":"Leslieville@cookery-store.ca","address":"1170 Queen Street East","country":"Canada","state":"ON","city":"Toronto","priority":1},{"lat":"45.6959302","lng":"-73.9321396","id":11007906,"name":"ROSE BONBON","phone":"450.970-3053","email":"comptabilite@rosebonbon.ca","address":"17670 RUE CHARLES","country":"Canada","state":"QC","city":"MIRABEL","postal":"J7J 0T6","priority":1},{"lat":"45.4219466","lng":"-75.6387057","id":11007910,"name":"BOUTIQUE GALERIA","phone":"613.746.2626","email":"sepehr.ghanbari@boutiquegaleria.ca","address":"1200 ST LAURENT BLVD #151","country":"Canada","state":"ON","city":"OTTAWA","postal":"K1K 3B8","priority":1},{"lat":"47.0008461","lng":"-65.56572919999999","id":11025263,"name":"PARK PLACE GIFTS & DECOR","phone":"506.622.832","email":"katrina@dickisons.com","address":"135 HENRY STREET","country":"Canada","state":"NB","city":"MIRAMICHI","postal":"E1V 2N5","priority":1},{"lat":"45.56114","lng":"-73.7465021","id":11191098,"name":"Low Country Vacuum & Sew","phone":"615 202 6231","address":"1669 D Savanna Hwy","country":"USA","state":"NC","city":"Charleston","postal":"29407","priority":1},{"lat":"42.3220545","lng":"-83.0143937","id":11364503,"name":"Jones & Company","phone":"5192526448","email":"jonesandco@gmail.com","address":"1755 Wyandotte St. E.","country":"Canada","state":"ON","city":"Windsor","postal":"N8Y 1C9","priority":1},{"lat":"47.7924381","lng":"-64.64592139999999","id":11364505,"name":"FLEUR. ANGES&PAPILLONS INC","phone":"506.344.7115","email":"angespapillons@outlook.com","address":"38 RUE PRINCIPALE","country":"Canada","state":"NB","city":"LAMEQUE","postal":"E8T 1M4","priority":1},{"lat":"45.6006624","lng":"-73.5644021","id":11392521,"name":"KOZY ANJOU","address":"7999 BOUL. GALERIES ANJOU LOCAL B-008A","country":"Canada","state":"QC","city":"MONTREAL","postal":"H1M 1W9","priority":1},{"lat":"46.8027867","lng":"-71.2250085","id":11402542,"name":"Petite Provence Canada","phone":"418-881-2733","email":"Boyercathy@outlook.com","address":"1176 avenue Cartier","country":"Canada","state":"QC","city":"Québec","postal":"G1R 2S7","priority":1},{"lat":"43.2662738","lng":"-79.9562346","id":11427596,"name":"OLIVER & CO. HOME","phone":"9052202121","email":"KATHRYNPKAISER1@GMAIL.COM","address":"56 KING STREET WEST","country":"Canada","state":"ON","city":"DUNDAS","postal":"L9H 1T8","priority":1},{"lat":"49.84529999999999","lng":"-97.097262","id":11436740,"name":"URBAN RETREAT DERMA SPA","phone":"Tel.: 204.257.7600","email":"michellegibeault@shaw.ca","address":"444 ST-ANNE'S ROAD","country":"Canada","state":"MB","city":"WINNIPEG","postal":"R2M 3C8","priority":1},{"lat":"50.1435341","lng":"-96.86993230000002","id":11436741,"name":"WISHME","phone":"204.785.2484","email":"mfreeman@inclusionselkirk.ca","address":"377 EVELINE STREET","country":"Canada","state":"MB","city":"SELKIRK","postal":"R1A 1N4","priority":1}]